Entity ID,Entity Name,Plant ID,Plant Name,Sector,Plant State,Generator ID,Unit Code,Nameplate Capacity (MW),Net Summer Capacity (MW),Net Winter Capacity (MW),Technology,Energy Source Code,Prime Mover Code,Operating Month,Operating Year,Retirement Month,Retirement Year,County,Latitude,Longitude,Google Map,Bing Map,Balancing Authority Code
30151,"Tri-State G & T Assn, Inc",87,Escalante,Electric Utility,NM,1,,257.0,253.0,253.0,Conventional Steam Coal,SUB,ST,12,1984,11,2020,McKinley,35.415900,-108.082000,Map,Map,WACM
1752,Biola University,54296,Biola University Hybrid,Commercial CHP,CA,EG1,,0.6,0.6,0.6,Natural Gas Internal Combustion Engine,NG,IC,4,1990,11,2020,Los Angeles,33.906953,-118.013100,Map,Map,CISO
1752,Biola University,54296,Biola University Hybrid,Commercial CHP,CA,EG2,,0.6,0.6,0.6,Natural Gas Internal Combustion Engine,NG,IC,4,1990,11,2020,Los Angeles,33.906953,-118.013100,Map,Map,CISO
189,PowerSouth Energy Cooperative,56,Lowman Energy Center,Electric Utility,AL,1,,66.0,78.0,78.0,Conventional Steam Coal,BIT,ST,6,1969,10,2020,Washington,31.488019,-87.910750,Map,Map,AEC
189,PowerSouth Energy Cooperative,56,Lowman Energy Center,Electric Utility,AL,2,,236.0,238.0,238.0,Conventional Steam Coal,BIT,ST,6,1978,10,2020,Washington,31.488019,-87.910750,Map,Map,AEC
189,PowerSouth Energy Cooperative,56,Lowman Energy Center,Electric Utility,AL,3,,236.0,238.0,238.0,Conventional Steam Coal,BIT,ST,6,1980,10,2020,Washington,31.488019,-87.910750,Map,Map,AEC
6455,"Duke Energy Florida, LLC",624,Avon Park,Electric Utility,FL,P1,,33.7,24.0,25.0,Natural Gas Fired Combustion Turbine,NG,GT,12,1968,10,2020,Highlands,27.579444,-81.492780,Map,Map,FPC
6455,"Duke Energy Florida, LLC",624,Avon Park,Electric Utility,FL,P2,,33.7,24.0,25.0,Petroleum Liquids,DFO,GT,12,1968,10,2020,Highlands,27.579444,-81.492780,Map,Map,FPC
15248,Portland General Electric Co,6106,Boardman,Electric Utility,OR,1,,642.2,585.0,585.0,Conventional Steam Coal,SUB,ST,8,1980,10,2020,Morrow,45.693182,-119.808800,Map,Map,PGE
15474,Public Service Co of Oklahoma,127,Oklaunion,Electric Utility,TX,1,,720.0,650.0,650.0,Conventional Steam Coal,SUB,ST,12,1986,9,2020,Wilbarger,34.082500,-99.175300,Map,Map,SWPP
61130,"Helix Ravenswood, LLC",2500,Ravenswood,IPP Non-CHP,NY,GT4,,21.1,12.9,15.6,Natural Gas Fired Combustion Turbine,NG,GT,6,1969,9,2020,Queens,40.759167,-73.946110,Map,Map,NYIS
61130,"Helix Ravenswood, LLC",2500,Ravenswood,IPP Non-CHP,NY,GT5,,21.1,15.5,17.2,Natural Gas Fired Combustion Turbine,NG,GT,6,1969,9,2020,Queens,40.759167,-73.946110,Map,Map,NYIS
61130,"Helix Ravenswood, LLC",2500,Ravenswood,IPP Non-CHP,NY,GT6,,22.0,12.6,16.5,Natural Gas Fired Combustion Turbine,NG,GT,6,1969,9,2020,Queens,40.759167,-73.946110,Map,Map,NYIS
61130,"Helix Ravenswood, LLC",2500,Ravenswood,IPP Non-CHP,NY,GT9,,25.0,16.3,22.8,Natural Gas Fired Combustion Turbine,NG,GT,6,1969,9,2020,Queens,40.759167,-73.946110,Map,Map,NYIS
55269,NextEra Energy Duane Arnold LLC,1060,Duane Arnold Energy Center,IPP Non-CHP,IA,1,,679.5,601.4,622.1,Nuclear,NUC,ST,2,1975,8,2020,Linn,42.101100,-91.778100,Map,Map,MISO
12653,"Lanyard Power Holdings, LLC",1572,Dickerson,IPP Non-CHP,MD,2,,196.0,173.0,173.0,Conventional Steam Coal,BIT,ST,4,1960,8,2020,Montgomery,39.209700,-77.464400,Map,Map,PJM
12653,"Lanyard Power Holdings, LLC",1572,Dickerson,IPP Non-CHP,MD,3,,196.0,173.0,173.0,Conventional Steam Coal,BIT,ST,3,1962,8,2020,Montgomery,39.209700,-77.464400,Map,Map,PJM
12653,"Lanyard Power Holdings, LLC",1572,Dickerson,IPP Non-CHP,MD,ST1,,196.0,173.0,173.0,Conventional Steam Coal,BIT,ST,6,1959,8,2020,Montgomery,39.209700,-77.464400,Map,Map,PJM
13756,Northern Indiana Pub Serv Co,995,Bailly,Electric Utility,IN,10,,37.5,31.0,31.0,Natural Gas Fired Combustion Turbine,NG,GT,11,1968,7,2020,Porter,41.645000,-87.122500,Map,Map,MISO
20737,Willmar Municipal Utilities,2022,Willmar,Electric Utility,MN,3,,18.0,16.8,16.8,Natural Gas Steam Turbine,NG,ST,11,1970,7,2020,Kandiyohi,45.121705,-95.053240,Map,Map,MISO
20737,Willmar Municipal Utilities,2022,Willmar,Electric Utility,MN,ST2,,8.0,6.5,6.5,Natural Gas Steam Turbine,NG,ST,9,1956,7,2020,Kandiyohi,45.121705,-95.053240,Map,Map,MISO
57128,Bloom Energy,59281,eBay - South Jordan,IPP Non-CHP,UT,EBY00,,6.0,6.0,6.0,Other Natural Gas,NG,FC,9,2013,7,2020,Salt Lake,40.560556,-112.047800,Map,Map,PACE
57128,Bloom Energy,59281,eBay - South Jordan,IPP Non-CHP,UT,EBY03,,3.8,3.8,3.8,Other Natural Gas,NG,FC,3,2015,7,2020,Salt Lake,40.560556,-112.047800,Map,Map,PACE
60422,H.A. Wagner LLC,1554,Herbert A Wagner,IPP Non-CHP,MD,2,,136.0,118.0,118.0,Conventional Steam Coal,RC,ST,1,1959,6,2020,Anne Arundel,39.178100,-76.526800,Map,Map,PJM
4161,Constellation Power Source Gen,1555,Notch Cliff,IPP Non-CHP,MD,GT1,,18.0,14.0,16.0,Natural Gas Fired Combustion Turbine,NG,GT,6,1969,6,2020,Baltimore,39.421700,-76.508700,Map,Map,PJM
4161,Constellation Power Source Gen,1555,Notch Cliff,IPP Non-CHP,MD,GT2,,18.0,14.0,16.0,Natural Gas Fired Combustion Turbine,NG,GT,6,1969,6,2020,Baltimore,39.421700,-76.508700,Map,Map,PJM
4161,Constellation Power Source Gen,1555,Notch Cliff,IPP Non-CHP,MD,GT3,,18.0,14.0,16.0,Natural Gas Fired Combustion Turbine,NG,GT,6,1969,6,2020,Baltimore,39.421700,-76.508700,Map,Map,PJM
4161,Constellation Power Source Gen,1555,Notch Cliff,IPP Non-CHP,MD,GT4,,18.0,14.0,16.0,Natural Gas Fired Combustion Turbine,NG,GT,6,1969,6,2020,Baltimore,39.421700,-76.508700,Map,Map,PJM
4161,Constellation Power Source Gen,1560,Westport,IPP Non-CHP,MD,GT5,,121.5,115.8,115.8,Natural Gas Fired Combustion Turbine,NG,GT,2,1969,6,2020,Baltimore City,39.266040,-76.629540,Map,Map,PJM
7483,City of Grand Haven - (MI),1825,J B Sims,Electric Utility,MI,3,,80.0,69.1,69.1,Conventional Steam Coal,BIT,ST,8,1983,6,2020,Ottawa,43.070600,-86.235000,Map,Map,MISO
7483,City of Grand Haven - (MI),1826,Grand Haven Diesel Plant,Electric Utility,MI,1,,7.0,8.4,8.4,Natural Gas Internal Combustion Engine,NG,IC,2,1974,6,2020,Ottawa,43.059800,-86.237900,Map,Map,MISO
58620,AEP Generation Resources Inc,2840,Conesville,IPP Non-CHP,OH,4,,841.5,780.0,780.0,Conventional Steam Coal,BIT,ST,6,1973,6,2020,Coshocton,40.184200,-81.881100,Map,Map,PJM
20856,Wisconsin Power & Light Co,4057,Rock River,Electric Utility,WI,3,,37.5,21.5,25.6,Natural Gas Fired Combustion Turbine,NG,GT,8,1967,6,2020,Rock,42.583094,-89.025920,Map,Map,MISO
20856,Wisconsin Power & Light Co,4057,Rock River,Electric Utility,WI,4,,18.0,14.3,15.8,Natural Gas Fired Combustion Turbine,NG,GT,12,1968,6,2020,Rock,42.583094,-89.025920,Map,Map,MISO
20856,Wisconsin Power & Light Co,4057,Rock River,Electric Utility,WI,5,,56.7,45.1,52.8,Natural Gas Fired Combustion Turbine,NG,GT,6,1972,6,2020,Rock,42.583094,-89.025920,Map,Map,MISO
20856,Wisconsin Power & Light Co,4057,Rock River,Electric Utility,WI,6,,56.7,33.7,38.9,Natural Gas Fired Combustion Turbine,NG,GT,6,1972,6,2020,Rock,42.583094,-89.025920,Map,Map,MISO
20856,Wisconsin Power & Light Co,4059,Sheepskin,Electric Utility,WI,1,,41.7,27.2,33.3,Natural Gas Fired Combustion Turbine,NG,GT,6,1971,6,2020,Rock,42.834700,-89.110830,Map,Map,MISO
6035,Exelon Power,7701,Fairless Hills,IPP Non-CHP,PA,A,,30.0,30.0,30.0,Landfill Gas,LFG,ST,12,1996,6,2020,Bucks,40.140500,-74.750600,Map,Map,PJM
6035,Exelon Power,7701,Fairless Hills,IPP Non-CHP,PA,B,,30.0,30.0,30.0,Landfill Gas,LFG,ST,12,1996,6,2020,Bucks,40.140500,-74.750600,Map,Map,PJM
5624,"RED-Rochester, LLC",10025,"RED-Rochester, LLC",Industrial CHP,NY,22TG,,12.5,12.5,12.5,Natural Gas Steam Turbine,NG,ST,8,1954,6,2020,Monroe,43.198900,-77.631900,Map,Map,NYIS
61351,APTIM Environmental & Infrastructure,54934,Keystone Recovery,IPP Non-CHP,PA,NO 1,,0.8,0.7,0.7,Landfill Gas,LFG,IC,1,1995,6,2020,Lackawanna,41.436308,-75.598440,Map,Map,PJM
61351,APTIM Environmental & Infrastructure,54934,Keystone Recovery,IPP Non-CHP,PA,NO 2,,0.8,0.7,0.7,Landfill Gas,LFG,IC,1,1995,6,2020,Lackawanna,41.436308,-75.598440,Map,Map,PJM
61351,APTIM Environmental & Infrastructure,54934,Keystone Recovery,IPP Non-CHP,PA,NO 3,,0.8,0.7,0.7,Landfill Gas,LFG,IC,1,1995,6,2020,Lackawanna,41.436308,-75.598440,Map,Map,PJM
61351,APTIM Environmental & Infrastructure,54934,Keystone Recovery,IPP Non-CHP,PA,NO 4,,0.8,0.7,0.7,Landfill Gas,LFG,IC,1,1995,6,2020,Lackawanna,41.436308,-75.598440,Map,Map,PJM
61351,APTIM Environmental & Infrastructure,54934,Keystone Recovery,IPP Non-CHP,PA,NO 5,,0.8,0.7,0.7,Landfill Gas,LFG,IC,3,1996,6,2020,Lackawanna,41.436308,-75.598440,Map,Map,PJM
61351,APTIM Environmental & Infrastructure,54934,Keystone Recovery,IPP Non-CHP,PA,NO 6,,0.8,0.7,0.7,Landfill Gas,LFG,IC,3,1996,6,2020,Lackawanna,41.436308,-75.598440,Map,Map,PJM
61351,APTIM Environmental & Infrastructure,54934,Keystone Recovery,IPP Non-CHP,PA,NO 7,,0.8,0.7,0.7,Landfill Gas,LFG,IC,3,1996,6,2020,Lackawanna,41.436308,-75.598440,Map,Map,PJM
14268,City of Owensboro - (KY),1374,Elmer Smith,Electric Utility,KY,1,,163.2,137.0,142.3,Conventional Steam Coal,BIT,ST,4,1964,5,2020,Daviess,37.794200,-87.060800,Map,Map,LGEE
14268,City of Owensboro - (KY),1374,Elmer Smith,Electric Utility,KY,2,,282.1,262.8,265.5,Conventional Steam Coal,BIT,ST,3,1974,5,2020,Daviess,37.794200,-87.060800,Map,Map,LGEE
17698,Southwestern Electric Power Co,1417,Lieberman,Electric Utility,LA,2,,25.0,26.0,26.0,Natural Gas Steam Turbine,NG,ST,4,1949,5,2020,Caddo,32.704700,-93.959700,Map,Map,SWPP
6526,FirstEnergy Generation Corp,2866,FirstEnergy W H Sammis,IPP Non-CHP,OH,1,,190.4,180.0,180.0,Conventional Steam Coal,BIT,ST,8,1959,5,2020,Jefferson,40.531700,-80.631900,Map,Map,PJM
6526,FirstEnergy Generation Corp,2866,FirstEnergy W H Sammis,IPP Non-CHP,OH,2,,190.4,180.0,180.0,Conventional Steam Coal,BIT,ST,7,1960,5,2020,Jefferson,40.531700,-80.631900,Map,Map,PJM
6526,FirstEnergy Generation Corp,2866,FirstEnergy W H Sammis,IPP Non-CHP,OH,3,,190.4,180.0,180.0,Conventional Steam Coal,BIT,ST,7,1961,5,2020,Jefferson,40.531700,-80.631900,Map,Map,PJM
6526,FirstEnergy Generation Corp,2866,FirstEnergy W H Sammis,IPP Non-CHP,OH,4,,190.4,180.0,180.0,Conventional Steam Coal,BIT,ST,11,1962,5,2020,Jefferson,40.531700,-80.631900,Map,Map,PJM
17698,Southwestern Electric Power Co,3476,Knox Lee,Electric Utility,TX,2,,38.0,31.0,31.0,Natural Gas Steam Turbine,NG,ST,12,1950,5,2020,Gregg,32.376600,-94.641500,Map,Map,SWPP
17698,Southwestern Electric Power Co,3476,Knox Lee,Electric Utility,TX,3,,38.0,25.0,25.0,Natural Gas Steam Turbine,NG,ST,6,1952,5,2020,Gregg,32.376600,-94.641500,Map,Map,SWPP
17698,Southwestern Electric Power Co,3477,Lone Star,Electric Utility,TX,1,,40.0,50.0,50.0,Natural Gas Steam Turbine,NG,ST,3,1954,5,2020,Morris,32.921500,-94.722600,Map,Map,SWPP
9379,"Inter-Power/AhlCon Partners, L.P.",10143,Colver Green Energy,IPP Non-CHP,PA,COLV,,118.0,110.0,110.0,Conventional Steam Coal,WC,ST,2,1995,5,2020,Cambria,40.550000,-78.800000,Map,Map,PJM
15174,Freeport McMoRan Oil & Gas,50623,Gaviota Oil Plant,Industrial CHP,CA,GENA,,3.5,3.0,3.4,Natural Gas Fired Combustion Turbine,NG,GT,12,1987,5,2020,Santa Barbara,34.475067,-120.205100,Map,Map,CISO
15174,Freeport McMoRan Oil & Gas,50623,Gaviota Oil Plant,Industrial CHP,CA,GENB,,3.5,3.0,3.4,Natural Gas Fired Combustion Turbine,NG,GT,12,1987,5,2020,Santa Barbara,34.475067,-120.205100,Map,Map,CISO
15174,Freeport McMoRan Oil & Gas,50623,Gaviota Oil Plant,Industrial CHP,CA,GENC,,3.5,3.0,3.4,Natural Gas Fired Combustion Turbine,NG,GT,12,1987,5,2020,Santa Barbara,34.475067,-120.205100,Map,Map,CISO
15174,Freeport McMoRan Oil & Gas,50623,Gaviota Oil Plant,Industrial CHP,CA,GEND,,3.5,3.0,3.4,Natural Gas Fired Combustion Turbine,NG,GT,12,1987,5,2020,Santa Barbara,34.475067,-120.205100,Map,Map,CISO
17897,St Mary's Hospital,54262,Saint Marys Hospital Power Plant,Commercial CHP,MN,6,,2.7,2.7,2.7,Natural Gas Internal Combustion Engine,NG,IC,1,1989,5,2020,Olmsted,44.097850,-92.479820,Map,Map,MISO
57172,SC Landfill Energy LLC,57843,SC Landfill Energy LLC,IPP Non-CHP,NJ,GEN1,,1.9,1.8,1.8,Landfill Gas,LFG,IC,12,2008,5,2020,Salem,39.588889,-75.376390,Map,Map,PJM
57173,AC Landfill Energy LLC,57845,AC Landfill Energy LLC,IPP Non-CHP,NJ,UNIT1,,1.6,1.5,1.5,Landfill Gas,LFG,IC,3,2005,5,2020,Atlantic,39.417500,-74.542220,Map,Map,PJM
57173,AC Landfill Energy LLC,57845,AC Landfill Energy LLC,IPP Non-CHP,NJ,UNIT2,,1.9,1.8,1.8,Landfill Gas,LFG,IC,3,2005,5,2020,Atlantic,39.417500,-74.542220,Map,Map,PJM
57174,SX Landfill Energy LLC,57846,SX Landfill Energy LLC,IPP Non-CHP,NJ,UNIT1,,1.6,1.5,1.5,Landfill Gas,LFG,IC,6,2011,5,2020,Sussex,41.093613,-74.678850,Map,Map,PJM
57174,SX Landfill Energy LLC,57846,SX Landfill Energy LLC,IPP Non-CHP,NJ,UNIT2,,1.6,1.5,1.5,Landfill Gas,LFG,IC,6,2011,5,2020,Sussex,41.093613,-74.678850,Map,Map,PJM
57175,BC Landfill Energy LLC,57847,BC Landfill Energy LLC,IPP Non-CHP,NJ,UNIT1,,1.5,1.4,1.4,Landfill Gas,LFG,IC,8,2007,5,2020,Burlington,40.074167,-74.665560,Map,Map,PJM
57175,BC Landfill Energy LLC,57847,BC Landfill Energy LLC,IPP Non-CHP,NJ,UNIT2,,1.5,1.4,1.4,Landfill Gas,LFG,IC,8,2007,5,2020,Burlington,40.074167,-74.665560,Map,Map,PJM
57175,BC Landfill Energy LLC,57847,BC Landfill Energy LLC,IPP Non-CHP,NJ,UNIT3,,1.5,1.4,1.4,Landfill Gas,LFG,IC,8,2007,5,2020,Burlington,40.074167,-74.665560,Map,Map,PJM
57175,BC Landfill Energy LLC,57847,BC Landfill Energy LLC,IPP Non-CHP,NJ,UNIT4,,1.5,1.4,1.4,Landfill Gas,LFG,IC,8,2007,5,2020,Burlington,40.074167,-74.665560,Map,Map,PJM
57175,BC Landfill Energy LLC,57847,BC Landfill Energy LLC,IPP Non-CHP,NJ,UNIT5,,1.5,1.4,1.4,Landfill Gas,LFG,IC,8,2007,5,2020,Burlington,40.074167,-74.665560,Map,Map,PJM
59878,Clean Fuel Partners Dane,59559,Clean Fuel Dane Community Digester,IPP CHP,WI,GEN#1,,1.0,1.0,1.0,Other Waste Biomass,OBG,IC,3,2011,5,2020,Dane,43.217222,-89.479170,Map,Map,MISO
59878,Clean Fuel Partners Dane,59559,Clean Fuel Dane Community Digester,IPP CHP,WI,GEN#2,,1.0,1.0,1.0,Other Waste Biomass,OBG,IC,3,2011,5,2020,Dane,43.217222,-89.479170,Map,Map,MISO
6027,Entergy Nuclear Indian Point 2,2497,Indian Point 2,IPP Non-CHP,NY,2,,"1,299.0","1,016.1","1,025.9",Nuclear,NUC,ST,8,1973,4,2020,Westchester,41.270556,-73.952700,Map,Map,NYIS
55970,JHP Pharmaceuticals LLC,50318,Par Sterile Products,Industrial CHP,MI,38-1,,2.8,2.8,3.7,Natural Gas Fired Combustion Turbine,NG,GT,11,1986,4,2020,Oakland,42.683670,-83.114340,Map,Map,MISO
4161,Constellation Power Source Gen,1555,Notch Cliff,IPP Non-CHP,MD,GT5,,18.0,14.6,16.0,Natural Gas Fired Combustion Turbine,NG,GT,6,1969,3,2020,Baltimore,39.421700,-76.508700,Map,Map,PJM
4161,Constellation Power Source Gen,1555,Notch Cliff,IPP Non-CHP,MD,GT6,,18.0,15.6,16.0,Natural Gas Fired Combustion Turbine,NG,GT,6,1969,3,2020,Baltimore,39.421700,-76.508700,Map,Map,PJM
4161,Constellation Power Source Gen,1555,Notch Cliff,IPP Non-CHP,MD,GT7,,18.0,14.5,16.0,Natural Gas Fired Combustion Turbine,NG,GT,6,1969,3,2020,Baltimore,39.421700,-76.508700,Map,Map,PJM
4161,Constellation Power Source Gen,1555,Notch Cliff,IPP Non-CHP,MD,GT8,,18.0,16.0,16.0,Natural Gas Fired Combustion Turbine,NG,GT,6,1969,3,2020,Baltimore,39.421700,-76.508700,Map,Map,PJM
5860,Empire District Electric Co,2076,Asbury,Electric Utility,MO,1,,212.8,198.0,198.0,Conventional Steam Coal,SUB,ST,6,1970,3,2020,Jasper,37.361315,-94.589260,Map,Map,SWPP
3046,Duke Energy Progress - (NC),3250,Darlington County,Electric Utility,SC,1,,66.8,50.0,63.0,Natural Gas Fired Combustion Turbine,NG,GT,8,1974,3,2020,Darlington,34.418500,-80.165700,Map,Map,CPLE
3046,Duke Energy Progress - (NC),3250,Darlington County,Electric Utility,SC,10,,65.8,49.0,65.0,Petroleum Liquids,DFO,GT,8,1974,3,2020,Darlington,34.418500,-80.165700,Map,Map,CPLE
3046,Duke Energy Progress - (NC),3250,Darlington County,Electric Utility,SC,2,,65.8,48.0,61.0,Petroleum Liquids,DFO,GT,8,1974,3,2020,Darlington,34.418500,-80.165700,Map,Map,CPLE
3046,Duke Energy Progress - (NC),3250,Darlington County,Electric Utility,SC,3,,66.8,50.0,63.0,Natural Gas Fired Combustion Turbine,NG,GT,8,1974,3,2020,Darlington,34.418500,-80.165700,Map,Map,CPLE
3046,Duke Energy Progress - (NC),3250,Darlington County,Electric Utility,SC,4,,65.8,48.0,60.0,Petroleum Liquids,DFO,GT,8,1974,3,2020,Darlington,34.418500,-80.165700,Map,Map,CPLE
3046,Duke Energy Progress - (NC),3250,Darlington County,Electric Utility,SC,6,,65.8,43.0,62.0,Petroleum Liquids,DFO,GT,8,1974,3,2020,Darlington,34.418500,-80.165700,Map,Map,CPLE
3046,Duke Energy Progress - (NC),3250,Darlington County,Electric Utility,SC,7,,66.8,47.0,61.0,Natural Gas Fired Combustion Turbine,NG,GT,6,1975,3,2020,Darlington,34.418500,-80.165700,Map,Map,CPLE
3046,Duke Energy Progress - (NC),3250,Darlington County,Electric Utility,SC,8,,65.8,44.0,62.0,Petroleum Liquids,DFO,GT,8,1974,3,2020,Darlington,34.418500,-80.165700,Map,Map,CPLE
22129,Somerset Operating Co LLC,6082,Somerset Operating Co LLC,IPP Non-CHP,NY,1,,655.1,685.9,692.5,Conventional Steam Coal,BIT,ST,8,1984,3,2020,Niagara,43.358889,-78.604720,Map,Map,NYIS
7049,General Electric Aircraft Engines,10029,General Electric Aircraft Engines,Industrial Non-CHP,MA,GEN5,,10.0,8.5,8.5,Natural Gas Steam Turbine,NG,ST,1,1948,3,2020,Essex,42.450000,-70.973900,Map,Map,ISNE
7049,General Electric Aircraft Engines,10029,General Electric Aircraft Engines,Industrial Non-CHP,MA,GEN6,,10.0,8.5,8.5,Natural Gas Steam Turbine,NG,ST,1,1956,3,2020,Essex,42.450000,-70.973900,Map,Map,ISNE
7049,General Electric Aircraft Engines,10029,General Electric Aircraft Engines,Industrial Non-CHP,MA,GEN7,,12.5,6.8,7.8,Natural Gas Steam Turbine,NG,ST,1,1968,3,2020,Essex,42.450000,-70.973900,Map,Map,ISNE
2770,Terra-Gen Operating Co-Wind,50386,Windland,IPP Non-CHP,CA,WING,,15.3,15.3,15.3,Onshore Wind Turbine,WND,WT,12,1982,3,2020,Kern,35.052200,-118.358100,Map,Map,CISO
16668,Sabine Cogen LP,55104,Sabine Cogen,IPP CHP,TX,CTG1,CC1,37.4,33.1,35.3,Natural Gas Fired Combined Cycle,NG,CT,1,2000,3,2020,Orange,30.044400,-93.771390,Map,Map,MISO
16668,Sabine Cogen LP,55104,Sabine Cogen,IPP CHP,TX,CTG2,CC1,37.4,33.6,35.5,Natural Gas Fired Combined Cycle,NG,CT,1,2000,3,2020,Orange,30.044400,-93.771390,Map,Map,MISO
16668,Sabine Cogen LP,55104,Sabine Cogen,IPP CHP,TX,STG,CC1,31.7,20.0,20.0,Natural Gas Fired Combined Cycle,NG,CA,1,2000,3,2020,Orange,30.044400,-93.771390,Map,Map,MISO
56046,High Plains Wind Power LLC,56834,High Plains,IPP Non-CHP,TX,1,,10.0,10.0,10.0,Onshore Wind Turbine,WND,WT,4,2008,3,2020,Carson,35.350300,-101.540000,Map,Map,SWPP
6526,FirstEnergy Generation Corp,2837,FirstEnergy Eastlake,IPP Non-CHP,OH,6,,32.0,24.0,29.0,Petroleum Liquids,DFO,GT,12,1973,2,2020,Lake,41.671100,-81.442500,Map,Map,PJM
2770,Terra-Gen Operating Co-Wind,50485,Altech III,IPP Non-CHP,CA,GEN1,,21.7,21.7,21.7,Onshore Wind Turbine,WND,WT,12,1985,2,2020,Riverside,33.915023,-116.555100,Map,Map,CISO
2770,Terra-Gen Operating Co-Wind,50485,Altech III,IPP Non-CHP,CA,GEN2,,3.4,3.4,3.4,Onshore Wind Turbine,WND,WT,12,1984,2,2020,Riverside,33.915023,-116.555100,Map,Map,CISO
20541,Wheelabrator Environmental Systems,50879,Wheelabrator Frackville Energy,IPP CHP,PA,GEN1,,48.0,42.5,42.5,Conventional Steam Coal,WC,ST,9,1988,2,2020,Schuylkill,40.782377,-76.176180,Map,Map,PJM
55600,Cadillac Renewable Energy LLC,54415,Cadillac Renewable Energy,IPP Non-CHP,MI,GEN1,,44.0,38.0,38.0,Wood/Wood Waste Biomass,WDS,ST,8,1993,2,2020,Wexford,44.261690,-85.435220,Map,Map,MISO
2770,Terra-Gen Operating Co-Wind,57301,Dutch Wind Energy,IPP Non-CHP,CA,DEC,,8.0,8.0,8.0,Onshore Wind Turbine,WND,WT,8,1994,2,2020,Riverside,33.894200,-116.560300,Map,Map,CISO
56953,"Bos Dairy, LLC",57625,"Bos Dairy, LLC",Industrial Non-CHP,IN,BOS2,,0.7,0.6,0.6,Natural Gas Internal Combustion Engine,NG,IC,2,2011,2,2020,Jasper,41.115300,-87.232800,Map,Map,MISO
57463,Kimberly-Clark Worldwide Inc,58083,Fullerton Mill CHP,Industrial CHP,CA,GTG1,CC1,19.0,12.0,13.0,Natural Gas Fired Combined Cycle,NG,CT,7,2002,2,2020,Orange,33.861667,-117.893100,Map,Map,CISO
57463,Kimberly-Clark Worldwide Inc,58083,Fullerton Mill CHP,Industrial CHP,CA,STG1,CC1,2.0,1.0,1.0,Natural Gas Fired Combined Cycle,NG,CA,7,2002,2,2020,Orange,33.861667,-117.893100,Map,Map,CISO
63754,Innolith Snook LLC,60213,NA 1(Hagerstown),IPP Non-CHP,MD,MPSHG,,2.0,2.0,2.0,Batteries,MWH,BA,4,2017,2,2020,Washington,39.618890,-77.712120,Map,Map,PJM
18642,Tennessee Valley Authority,1378,Paradise,Electric Utility,KY,3,,"1,150.2",971.0,"1,017.0",Conventional Steam Coal,BIT,ST,2,1970,1,2020,Muhlenberg,37.260800,-86.978300,Map,Map,TVA
3046,Duke Energy Progress - (NC),2706,Asheville,Electric Utility,NC,1,,206.6,189.0,192.0,Conventional Steam Coal,BIT,ST,5,1964,1,2020,Buncombe,35.473100,-82.541700,Map,Map,CPLE
3046,Duke Energy Progress - (NC),2706,Asheville,Electric Utility,NC,2,,207.0,189.0,192.0,Conventional Steam Coal,BIT,ST,5,1971,1,2020,Buncombe,35.473100,-82.541700,Map,Map,CPLE
15298,Talen Montana LLC,6076,Colstrip,IPP Non-CHP,MT,1,,358.0,307.0,307.0,Conventional Steam Coal,SUB,ST,11,1975,1,2020,Rosebud,45.883100,-106.614000,Map,Map,NWMT
15298,Talen Montana LLC,6076,Colstrip,IPP Non-CHP,MT,2,,358.0,307.0,307.0,Conventional Steam Coal,SUB,ST,8,1976,1,2020,Rosebud,45.883100,-106.614000,Map,Map,NWMT
12949,Morgantown Energy Associates,10743,Morgantown Energy Facility,IPP CHP,WV,GEN1,,68.9,50.0,50.0,Conventional Steam Coal,WC,ST,11,1991,1,2020,Monongalia,39.639700,-79.960560,Map,Map,PJM
2770,Terra-Gen Operating Co-Wind,52160,Victory Garden Phase IV LLC,IPP Non-CHP,CA,WGNS,,22.0,22.0,22.0,Onshore Wind Turbine,WND,WT,5,1990,1,2020,Kern,35.076000,-118.366400,Map,Map,CISO
2770,Terra-Gen Operating Co-Wind,52161,Terra-Gen 251 Wind LLC,IPP Non-CHP,CA,WGNS,,18.4,18.4,18.4,Onshore Wind Turbine,WND,WT,1,1987,1,2020,Kern,35.085300,-118.354700,Map,Map,CISO
2770,Terra-Gen Operating Co-Wind,54681,Difwind Farms Ltd I,IPP Non-CHP,CA,EXIS,,7.3,7.3,7.3,Onshore Wind Turbine,WND,WT,1,1986,1,2020,Riverside,33.898856,-116.572800,Map,Map,CISO
2770,Terra-Gen Operating Co-Wind,54682,Difwind Farms Ltd II,IPP Non-CHP,CA,EXIS,,5.5,5.4,5.4,Onshore Wind Turbine,WND,WT,1,1986,1,2020,Riverside,33.893685,-116.567800,Map,Map,CISO
2770,Terra-Gen Operating Co-Wind,54685,Difwind Farms Ltd V,IPP Non-CHP,CA,EXIS,,11.7,11.6,11.6,Onshore Wind Turbine,WND,WT,1,1987,1,2020,Riverside,33.887401,-116.578200,Map,Map,CISO
9155,Inland Empire Energy Ctr LLC,55853,Inland Empire Energy Center,IPP Non-CHP,CA,1,,409.5,345.0,376.0,Natural Gas Fired Combined Cycle,NG,CS,7,2009,1,2020,Riverside,33.738839,-117.170400,Map,Map,CISO
9155,Inland Empire Energy Ctr LLC,55853,Inland Empire Energy Center,IPP Non-CHP,CA,2,,409.5,345.0,366.0,Natural Gas Fired Combined Cycle,NG,CS,5,2010,1,2020,Riverside,33.738839,-117.170400,Map,Map,CISO
22148,AES Alamitos LLC,315,AES Alamitos LLC,IPP Non-CHP,CA,1,,156.0,175.0,175.0,Natural Gas Steam Turbine,NG,ST,9,1956,12,2019,Los Angeles,33.768800,-118.100900,Map,Map,CISO
22148,AES Alamitos LLC,315,AES Alamitos LLC,IPP Non-CHP,CA,2,,156.0,175.0,175.0,Natural Gas Steam Turbine,NG,ST,2,1957,12,2019,Los Angeles,33.768800,-118.100900,Map,Map,CISO
22148,AES Alamitos LLC,315,AES Alamitos LLC,IPP Non-CHP,CA,6,,495.0,495.0,495.0,Natural Gas Steam Turbine,NG,ST,9,1966,12,2019,Los Angeles,33.768800,-118.100900,Map,Map,CISO
23693,AES Huntington Beach LLC,335,AES Huntington Beach LLC,IPP Non-CHP,CA,1,,218.0,225.8,225.8,Natural Gas Steam Turbine,NG,ST,6,1958,12,2019,Orange,33.643900,-117.979200,Map,Map,CISO
6455,"Duke Energy Florida, LLC",630,Higgins,Electric Utility,FL,P2,,33.7,25.0,25.0,Natural Gas Fired Combustion Turbine,NG,GT,4,1969,12,2019,Pinellas,28.003262,-82.661510,Map,Map,FPC
6455,"Duke Energy Florida, LLC",630,Higgins,Electric Utility,FL,P3,,42.9,31.0,36.0,Natural Gas Fired Combustion Turbine,NG,GT,12,1970,12,2019,Pinellas,28.003262,-82.661510,Map,Map,FPC
6455,"Duke Energy Florida, LLC",630,Higgins,Electric Utility,FL,P4,,42.9,31.0,35.0,Natural Gas Fired Combustion Turbine,NG,GT,1,1971,12,2019,Pinellas,28.003262,-82.661510,Map,Map,FPC
3040,City of Carmi - (IL),937,Carmi,Electric Utility,IL,11,,2.7,2.7,2.7,Petroleum Liquids,DFO,IC,12,1963,12,2019,White,38.096700,-88.163100,Map,Map,MISO
17633,Southern Indiana Gas & Elec Co,1011,Broadway (IN),Electric Utility,IN,2,,88.8,65.0,75.0,Natural Gas Fired Combustion Turbine,NG,GT,5,1981,12,2019,Vanderburgh,37.969116,-87.604880,Map,Map,MISO
19062,City of Traer - (IA),1192,Traer Main,Electric Utility,IA,5,,0.6,0.5,0.5,Petroleum Liquids,DFO,IC,1,1969,12,2019,Tama,42.192600,-92.463600,Map,Map,MISO
11249,Louisville Gas & Electric Co,1363,Cane Run,Electric Utility,KY,11,,16.3,14.0,14.0,Natural Gas Fired Combustion Turbine,NG,GT,6,1968,12,2019,Jefferson,38.183100,-85.889200,Map,Map,LGEE
1179,Versant Power,1468,Eastport,Electric Utility,ME,3,,2.0,2.0,2.1,Petroleum Liquids,DFO,IC,8,1949,12,2019,Washington,44.913600,-67.003300,Map,Map,ISNE
4161,Constellation Power Source Gen,1559,Riverside (MD),IPP Non-CHP,MD,GT8,,25.0,20.0,22.0,Petroleum Liquids,DFO,GT,9,1970,12,2019,Baltimore,39.236900,-76.513300,Map,Map,PJM
5109,DTE Electric Company,1730,Hancock,Electric Utility,MI,2,,19.0,18.0,24.0,Natural Gas Fired Combustion Turbine,NG,GT,10,1967,12,2019,Oakland,42.549700,-83.442500,Map,Map,MISO
5109,DTE Electric Company,1730,Hancock,Electric Utility,MI,4,,19.6,17.0,22.0,Natural Gas Fired Combustion Turbine,NG,GT,4,1969,12,2019,Oakland,42.549700,-83.442500,Map,Map,MISO
3813,Village of Clinton - (MI),1818,Clinton,Electric Utility,MI,1,,0.5,0.5,0.5,Petroleum Liquids,DFO,IC,3,1939,12,2019,Lenawee,42.068197,-83.976010,Map,Map,MISO
3813,Village of Clinton - (MI),1818,Clinton,Electric Utility,MI,2,,0.5,0.5,0.5,Petroleum Liquids,DFO,IC,3,1939,12,2019,Lenawee,42.068197,-83.976010,Map,Map,MISO
3813,Village of Clinton - (MI),1818,Clinton,Electric Utility,MI,6,,2.0,2.0,2.0,Petroleum Liquids,DFO,IC,5,1980,12,2019,Lenawee,42.068197,-83.976010,Map,Map,MISO
4045,City of Columbia - (MO),2123,Columbia (MO),Electric Utility,MO,7,,22.0,22.0,22.0,Conventional Steam Coal,BIT,ST,1,1965,12,2019,Boone,38.964646,-92.316770,Map,Map,MISO
10152,City of Kennett - (MO),2139,Kennett,Electric Utility,MO,1,,0.4,0.4,0.4,Petroleum Liquids,DFO,IC,8,1942,12,2019,Dunklin,36.233800,-90.052100,Map,Map,SWPP
10152,City of Kennett - (MO),2139,Kennett,Electric Utility,MO,2,,0.4,0.4,0.4,Petroleum Liquids,DFO,IC,8,1942,12,2019,Dunklin,36.233800,-90.052100,Map,Map,SWPP
10152,City of Kennett - (MO),2139,Kennett,Electric Utility,MO,3,,0.8,0.8,0.8,Petroleum Liquids,DFO,IC,8,1945,12,2019,Dunklin,36.233800,-90.052100,Map,Map,SWPP
10152,City of Kennett - (MO),2139,Kennett,Electric Utility,MO,4,,2.5,2.2,2.2,Natural Gas Internal Combustion Engine,NG,IC,8,1955,12,2019,Dunklin,36.233800,-90.052100,Map,Map,SWPP
10152,City of Kennett - (MO),2139,Kennett,Electric Utility,MO,5,,1.4,1.3,1.3,Petroleum Liquids,DFO,IC,8,1949,12,2019,Dunklin,36.233800,-90.052100,Map,Map,SWPP
10152,City of Kennett - (MO),2139,Kennett,Electric Utility,MO,6,,2.0,1.8,1.8,Natural Gas Internal Combustion Engine,NG,IC,8,1951,12,2019,Dunklin,36.233800,-90.052100,Map,Map,SWPP
10152,City of Kennett - (MO),2139,Kennett,Electric Utility,MO,7,,2.5,2.2,2.2,Natural Gas Internal Combustion Engine,NG,IC,8,1960,12,2019,Dunklin,36.233800,-90.052100,Map,Map,SWPP
10152,City of Kennett - (MO),2139,Kennett,Electric Utility,MO,8,,3.1,2.8,2.8,Natural Gas Internal Combustion Engine,NG,IC,8,1962,12,2019,Dunklin,36.233800,-90.052100,Map,Map,SWPP
10830,City of Lebanon - (OH),2921,Lebanon,Electric Utility,OH,5,,2.0,2.0,2.0,Petroleum Liquids,DFO,IC,1,1955,12,2019,Warren,39.432181,-84.210930,Map,Map,PJM
10830,City of Lebanon - (OH),2921,Lebanon,Electric Utility,OH,6,,3.0,3.0,3.0,Petroleum Liquids,DFO,IC,1,1961,12,2019,Warren,39.432181,-84.210930,Map,Map,PJM
10830,City of Lebanon - (OH),2921,Lebanon,Electric Utility,OH,7,,6.0,6.0,6.0,Petroleum Liquids,DFO,GT,1,1966,12,2019,Warren,39.432181,-84.210930,Map,Map,PJM
10830,City of Lebanon - (OH),2921,Lebanon,Electric Utility,OH,8,,5.6,5.6,5.6,Petroleum Liquids,DFO,IC,1,1970,12,2019,Warren,39.432181,-84.210930,Map,Map,PJM
10830,City of Lebanon - (OH),2921,Lebanon,Electric Utility,OH,9,,14.0,14.0,14.0,Petroleum Liquids,DFO,GT,11,1986,12,2019,Warren,39.432181,-84.210930,Map,Map,PJM
13809,NorthWestern Energy - (SD),3346,Mobile Unit,Electric Utility,SD,2,,1.7,1.8,1.8,Petroleum Liquids,DFO,IC,3,1991,12,2019,Beadle,44.378400,-98.462900,Map,Map,SWPP
13809,NorthWestern Energy - (SD),3346,Mobile Unit,Electric Utility,SD,3,,2.0,2.0,2.0,Petroleum Liquids,DFO,IC,11,2008,12,2019,Beadle,44.378400,-98.462900,Map,Map,SWPP
49756,Illinois Power Resources Generating LLC,6016,Duck Creek,IPP Non-CHP,IL,1,,441.0,410.0,425.0,Conventional Steam Coal,RC,ST,6,1976,12,2019,Fulton,40.466300,-89.984100,Map,Map,MISO
1984,ReEnergy Fort Fairfield LLC,7513,ReEnergy Fort Fairfield,IPP Non-CHP,ME,GEN1,,37.5,32.0,32.0,Wood/Wood Waste Biomass,WDS,ST,11,1987,12,2019,Aroostook,46.772850,-67.848490,Map,Map,NBSO
590,City of Anaheim - (CA),7693,Anaheim GT,Electric Utility,CA,1,,49.2,44.5,46.5,Natural Gas Fired Combustion Turbine,NG,GT,5,1991,12,2019,Orange,33.853542,-117.856300,Map,Map,CISO
18947,City of Tipton - (IA),8106,Tipton,Electric Utility,IA,3,,1.3,1.2,1.2,Natural Gas Internal Combustion Engine,NG,IC,4,1971,12,2019,Cedar,41.771700,-91.132100,Map,Map,MISO
24900,"The Mosaic Company, Plant City Facility",50371,"The Mosaic Company, Plant City Facility",Industrial CHP,FL,MI34,,40.5,27.9,22.2,All Other,WH,ST,11,1988,12,2019,Hillsborough,28.166300,-82.138800,Map,Map,TEC
20854,Winnebago County,50936,Winnebago County Landfill Gas,IPP CHP,WI,EG2,,0.9,0.9,0.9,Landfill Gas,LFG,IC,2,2000,12,2019,Winnebago,44.083000,-88.541100,Map,Map,MISO
8688,Hofstra University,51035,Hofstra University,Commercial CHP,NY,GEN1,,1.1,1.1,1.1,Natural Gas Internal Combustion Engine,NG,IC,9,1990,12,2019,Nassau,40.713900,-73.600300,Map,Map,NYIS
8688,Hofstra University,51035,Hofstra University,Commercial CHP,NY,GEN2,,1.1,1.1,1.1,Natural Gas Internal Combustion Engine,NG,IC,9,1990,12,2019,Nassau,40.713900,-73.600300,Map,Map,NYIS
22337,Alcoa World Alumina LLC,52069,Point Comfort Operations,Industrial CHP,TX,GEN1,,16.0,14.9,15.0,Natural Gas Steam Turbine,NG,ST,1,1958,12,2019,Calhoun,28.652709,-96.560000,Map,Map,ERCO
22337,Alcoa World Alumina LLC,52069,Point Comfort Operations,Industrial CHP,TX,GEN2,,16.0,14.9,15.0,Natural Gas Steam Turbine,NG,ST,1,1958,12,2019,Calhoun,28.652709,-96.560000,Map,Map,ERCO
22337,Alcoa World Alumina LLC,52069,Point Comfort Operations,Industrial CHP,TX,GEN3,,16.0,14.9,15.0,Natural Gas Steam Turbine,NG,ST,1,1958,12,2019,Calhoun,28.652709,-96.560000,Map,Map,ERCO
22337,Alcoa World Alumina LLC,52069,Point Comfort Operations,Industrial CHP,TX,GEN4,,15.1,14.0,14.2,Natural Gas Steam Turbine,NG,ST,1,1970,12,2019,Calhoun,28.652709,-96.560000,Map,Map,ERCO
57165,"Otay Landfill Gas LLC c/o EPP Service Company, LLC",52204,"Otay Landfill Gas, LLC",IPP Non-CHP,CA,OTA1,,1.8,1.5,1.5,Landfill Gas,LFG,IC,12,1986,12,2019,SAN DIEGO,32.598300,-117.017800,Map,Map,CISO
57165,"Otay Landfill Gas LLC c/o EPP Service Company, LLC",52204,"Otay Landfill Gas, LLC",IPP Non-CHP,CA,OTA2,,1.8,1.5,1.5,Landfill Gas,LFG,IC,12,1991,12,2019,SAN DIEGO,32.598300,-117.017800,Map,Map,CISO
57165,"Otay Landfill Gas LLC c/o EPP Service Company, LLC",52204,"Otay Landfill Gas, LLC",IPP Non-CHP,CA,OTA5,,1.6,1.5,1.5,Landfill Gas,LFG,IC,6,2013,12,2019,SAN DIEGO,32.598300,-117.017800,Map,Map,CISO
57165,"Otay Landfill Gas LLC c/o EPP Service Company, LLC",52204,"Otay Landfill Gas, LLC",IPP Non-CHP,CA,OTA6,,1.6,1.5,1.5,Landfill Gas,LFG,IC,6,2013,12,2019,SAN DIEGO,32.598300,-117.017800,Map,Map,CISO
57431,ReEnergy Biomass LLC,54526,ReEnergy Lyonsdale Biomass,IPP CHP,NY,STG,,21.1,19.0,19.0,Wood/Wood Waste Biomass,WDS,ST,8,1992,12,2019,Lewis,43.617965,-75.305440,Map,Map,NYIS
21622,The University of Texas at Dallas,54607,University of Texas at Dallas,Commercial CHP,TX,GEN1,,3.5,3.5,3.5,Natural Gas Internal Combustion Engine,NG,IC,1,1980,12,2019,Collin,32.988300,-96.748900,Map,Map,ERCO
49805,Kennecott Utah Copper,56163,Kennecott Power Plant,Industrial CHP,UT,4,,82.0,75.0,75.0,Conventional Steam Coal,BIT,ST,1,1958,12,2019,Salt Lake,40.711900,-112.122500,Map,Map,PACE
56629,Lubbock Wind LLC,57259,Lubbock Wind Ranch,IPP Non-CHP,TX,1,,2.5,2.5,2.5,Onshore Wind Turbine,WND,WT,2,2010,12,2019,Lubbock,33.569700,-101.765300,Map,Map,SWPP
56629,Lubbock Wind LLC,57259,Lubbock Wind Ranch,IPP Non-CHP,TX,2,,2.5,2.5,2.5,Onshore Wind Turbine,WND,WT,12,2010,12,2019,Lubbock,33.569700,-101.765300,Map,Map,SWPP
56629,Lubbock Wind LLC,57259,Lubbock Wind Ranch,IPP Non-CHP,TX,3,,2.5,2.5,2.5,Onshore Wind Turbine,WND,WT,12,2010,12,2019,Lubbock,33.569700,-101.765300,Map,Map,SWPP
56748,RP1 Fuel Cell LLC,57419,RPI Fuel Cell LLC,IPP CHP,CA,0001,,3.0,1.0,1.0,Other Waste Biomass,OBG,FC,1,2013,12,2019,San Bernardino,34.028611,-117.601400,Map,Map,CISO
56749,UTS SJ1 LLC,57420,UTS SJ1 LLC,IPP CHP,CA,0001,,1.5,1.4,1.4,Other Natural Gas,NG,FC,6,2012,12,2019,Santa Clara,37.433056,-121.941900,Map,Map,CISO
56753,AgPower Jerome LLC,57425,Double A Digester,IPP CHP,ID,1,,1.5,1.5,1.5,Other Waste Biomass,OBG,IC,12,2011,12,2019,Jerome,42.853942,-114.471900,Map,Map,IPCO
56753,AgPower Jerome LLC,57425,Double A Digester,IPP CHP,ID,2,,1.5,1.5,1.5,Other Waste Biomass,OBG,IC,1,2012,12,2019,Jerome,42.853942,-114.471900,Map,Map,IPCO
56753,AgPower Jerome LLC,57425,Double A Digester,IPP CHP,ID,3,,1.5,1.5,1.5,Other Waste Biomass,OBG,IC,2,2012,12,2019,Jerome,42.853942,-114.471900,Map,Map,IPCO
56756,Bellefontaine Gas Producers LLC,57433,Bellefontaine Gas Producers LLC,IPP Non-CHP,OH,1,,1.6,1.6,1.6,Landfill Gas,LFG,IC,2,2009,12,2019,Logan,40.410751,-83.717880,Map,Map,PJM
56756,Bellefontaine Gas Producers LLC,57433,Bellefontaine Gas Producers LLC,IPP Non-CHP,OH,2,,1.6,1.6,1.6,Landfill Gas,LFG,IC,2,2009,12,2019,Logan,40.410751,-83.717880,Map,Map,PJM
56756,Bellefontaine Gas Producers LLC,57433,Bellefontaine Gas Producers LLC,IPP Non-CHP,OH,3,,1.6,1.6,1.6,Landfill Gas,LFG,IC,2,2009,12,2019,Logan,40.410751,-83.717880,Map,Map,PJM
58270,GE Wind Energy LLC,57566,GE - Tehachapi,IPP Non-CHP,CA,1.7SF,,1.8,1.8,1.8,Onshore Wind Turbine,WND,WT,5,2014,12,2019,Kern,35.155278,-118.369400,Map,Map,CISO
61403,"Seminole Energy, LLC        ",61780,Seminole Energy,IPP Non-CHP,FL,ENG4,,1.6,1.6,1.6,Landfill Gas,LFG,IC,11,2007,12,2019,Seminole,28.790186,-81.089020,Map,Map,FPL
24211,Tucson Electric Power Co,126,H Wilson Sundt Generating Station,Electric Utility,AZ,ST1,,108.8,81.0,81.0,Natural Gas Steam Turbine,NG,ST,12,1958,11,2019,Pima,32.160000,-110.904700,Map,Map,TEPC
24211,Tucson Electric Power Co,126,H Wilson Sundt Generating Station,Electric Utility,AZ,ST2,,108.8,81.0,81.0,Natural Gas Steam Turbine,NG,ST,10,1960,11,2019,Pima,32.160000,-110.904700,Map,Map,TEPC
520,Illinois Power Generating Co,861,Coffeen,IPP Non-CHP,IL,1,,388.9,330.0,335.0,Conventional Steam Coal,RC,ST,12,1965,11,2019,Montgomery,39.058600,-89.403100,Map,Map,MISO
520,Illinois Power Generating Co,861,Coffeen,IPP Non-CHP,IL,2,,616.5,565.0,580.0,Conventional Steam Coal,RC,ST,9,1972,11,2019,Montgomery,39.058600,-89.403100,Map,Map,MISO
5517,Dynegy Midwest Generation Inc,891,Havana,IPP Non-CHP,IL,6,,488.0,411.0,434.0,Conventional Steam Coal,RC,ST,6,1978,11,2019,Mason,40.279700,-90.080000,Map,Map,MISO
5517,Dynegy Midwest Generation Inc,892,Hennepin Power Station,IPP Non-CHP,IL,1,,75.0,68.0,70.0,Conventional Steam Coal,RC,ST,6,1953,11,2019,Putnam,41.302800,-89.315000,Map,Map,MISO
5517,Dynegy Midwest Generation Inc,892,Hennepin Power Station,IPP Non-CHP,IL,2,,231.3,218.0,225.0,Conventional Steam Coal,RC,ST,5,1959,11,2019,Putnam,41.302800,-89.315000,Map,Map,MISO
16572,Salt River Project,4941,Navajo,Electric Utility,AZ,NAV1,,803.1,750.0,750.0,Conventional Steam Coal,BIT,ST,5,1974,11,2019,Coconino,36.904700,-111.388600,Map,Map,SRP
16572,Salt River Project,4941,Navajo,Electric Utility,AZ,NAV2,,803.1,750.0,750.0,Conventional Steam Coal,BIT,ST,4,1975,11,2019,Coconino,36.904700,-111.388600,Map,Map,SRP
6526,FirstEnergy Generation Corp,6094,FirstEnergy Bruce Mansfield,IPP Non-CHP,PA,3,,913.7,830.0,830.0,Conventional Steam Coal,RC,ST,9,1980,11,2019,Beaver,40.634800,-80.415900,Map,Map,PJM
61279,"HH Management, LLC",10027,Windpark Unlimited 1,IPP Non-CHP,CA,EXIS,,9.4,9.4,9.4,Onshore Wind Turbine,WND,WT,12,1985,11,2019,Riverside,33.944700,-116.622200,Map,Map,CISO
22091,New-Indy Ontario LLC,10427,New-Indy Ontario Mill,Industrial Non-CHP,CA,GEN1,,34.0,34.0,34.0,Natural Gas Fired Combustion Turbine,NG,GT,6,1985,11,2019,San Bernardino,34.045361,-117.540200,Map,Map,CISO
50006,Invista,10795,Camden South Carolina,Industrial CHP,SC,GEN1,,5.5,5.5,5.5,Natural Gas Steam Turbine,NG,ST,1,1952,11,2019,Kershaw,34.233800,-80.655800,Map,Map,CPLE
50006,Invista,10795,Camden South Carolina,Industrial CHP,SC,GEN2,,5.5,5.5,5.5,Natural Gas Steam Turbine,NG,ST,1,1952,11,2019,Kershaw,34.233800,-80.655800,Map,Map,CPLE
61279,"HH Management, LLC",50533,Painted Hills Wind Park,IPP Non-CHP,CA,WGNS,,19.0,19.0,19.0,Onshore Wind Turbine,WND,WT,11,1985,11,2019,Riverside,33.936900,-116.618300,Map,Map,CISO
57165,"Otay Landfill Gas LLC c/o EPP Service Company, LLC",52204,"Otay Landfill Gas, LLC",IPP Non-CHP,CA,OTA3,,3.7,3.2,3.2,Landfill Gas,LFG,IC,3,2007,11,2019,SAN DIEGO,32.598300,-117.017800,Map,Map,CISO
11204,Los Alamos County,58256,Los Alamos PV Site,Electric Utility,NM,2,,1.0,1.0,1.0,Batteries,MWH,BA,9,2012,11,2019,Los Alamos,35.875556,-106.310000,Map,Map,PNM
11204,Los Alamos County,58256,Los Alamos PV Site,Electric Utility,NM,3,,0.8,0.8,0.8,Batteries,MWH,BA,9,2012,11,2019,Los Alamos,35.875556,-106.310000,Map,Map,PNM
61279,"HH Management, LLC",60321,Windpark Unlimited 2,IPP Non-CHP,CA,EXIS2,,16.1,16.1,16.1,Onshore Wind Turbine,WND,WT,12,1985,11,2019,Riverside,33.931000,-116.630200,Map,Map,CISO
22484,AES Redondo Beach LLC,356,AES Redondo Beach LLC,IPP Non-CHP,CA,7,,495.0,480.0,505.9,Natural Gas Steam Turbine,NG,ST,2,1967,10,2019,Los Angeles,33.850400,-118.395000,Map,Map,CISO
22125,"Cayuga Operating Company, LLC",2535,Cayuga Operating Company,IPP Non-CHP,NY,1,,155.3,151.0,152.0,Conventional Steam Coal,BIT,ST,9,1955,10,2019,Tompkins,42.602800,-76.633600,Map,Map,NYIS
22125,"Cayuga Operating Company, LLC",2535,Cayuga Operating Company,IPP Non-CHP,NY,2,,167.2,139.6,77.6,Conventional Steam Coal,BIT,ST,10,1958,10,2019,Tompkins,42.602800,-76.633600,Map,Map,NYIS
2409,Brownsville Public Utilities Board,3559,Silas Ray,Electric Utility,TX,DG-7a,,1.3,1.0,1.0,Petroleum Liquids,DFO,IC,11,2001,10,2019,Cameron,25.913100,-97.521400,Map,Map,ERCO
2409,Brownsville Public Utilities Board,3559,Silas Ray,Electric Utility,TX,DG-7b,,1.3,1.0,1.0,Petroleum Liquids,DFO,IC,11,2001,10,2019,Cameron,25.913100,-97.521400,Map,Map,ERCO
18715,Texas Municipal Power Agency,6136,Gibbons Creek,Electric Utility,TX,1,,453.5,470.0,470.0,Conventional Steam Coal,SUB,ST,10,1983,10,2019,Grimes,30.619937,-96.081850,Map,Map,ERCO
1981,ReEnergy Ashland LLC,10356,ReEnergy Ashland,IPP Non-CHP,ME,GEN1,,39.6,37.0,38.0,Wood/Wood Waste Biomass,WDS,ST,8,1993,10,2019,Aroostook,46.633400,-68.436100,Map,Map,NBSO
4580,G-P CONSUMER OPER LLC,10606,Georgia-Pacific Crossett LLC,Industrial CHP,AR,GEN5,,30.6,30.6,30.6,Wood/Wood Waste Biomass,BLQ,ST,1,1969,10,2019,Ashley,33.142100,-91.975000,Map,Map,MISO
4580,G-P CONSUMER OPER LLC,10606,Georgia-Pacific Crossett LLC,Industrial CHP,AR,GEN6,,36.0,36.0,36.0,Wood/Wood Waste Biomass,BLQ,ST,6,1982,10,2019,Ashley,33.142100,-91.975000,Map,Map,MISO
7475,Graphic Packaging Corp,10698,Graphic Packaging,Industrial CHP,MI,GEN1,,10.0,5.0,7.0,Natural Gas Steam Turbine,NG,ST,2,1959,10,2019,Kalamazoo,42.306809,-85.578970,Map,Map,MISO
25835,Portland City of,50105,Ground Water Pumping Station,IPP Non-CHP,OR,GPS1,,0.9,0.9,0.9,Conventional Hydroelectric,WAT,HY,4,1985,10,2019,Multnomah,45.555833,-122.494700,Map,Map,PGE
25835,Portland City of,50105,Ground Water Pumping Station,IPP Non-CHP,OR,GPS2,,0.9,0.9,0.9,Conventional Hydroelectric,WAT,HY,4,1985,10,2019,Multnomah,45.555833,-122.494700,Map,Map,PGE
25835,Portland City of,50105,Ground Water Pumping Station,IPP Non-CHP,OR,GPS3,,0.9,0.9,0.9,Conventional Hydroelectric,WAT,HY,4,1985,10,2019,Multnomah,45.555833,-122.494700,Map,Map,PGE
25835,Portland City of,50105,Ground Water Pumping Station,IPP Non-CHP,OR,GPS4,,0.9,0.9,0.9,Conventional Hydroelectric,WAT,HY,4,1985,10,2019,Multnomah,45.555833,-122.494700,Map,Map,PGE
25835,Portland City of,50105,Ground Water Pumping Station,IPP Non-CHP,OR,GPS5,,0.9,0.9,0.9,Conventional Hydroelectric,WAT,HY,4,1985,10,2019,Multnomah,45.555833,-122.494700,Map,Map,PGE
25835,Portland City of,50105,Ground Water Pumping Station,IPP Non-CHP,OR,GPS6,,0.9,0.9,0.9,Conventional Hydroelectric,WAT,HY,4,1985,10,2019,Multnomah,45.555833,-122.494700,Map,Map,PGE
56772,"TX LFG Energy, LP",55556,Security,IPP Non-CHP,TX,UNT3,,1.7,1.7,1.7,Landfill Gas,LFG,IC,12,2003,10,2019,Montgomery,30.322500,-95.268100,Map,Map,MISO
5906,EDF Renewable Services Inc,56646,Chandler Hills Wind Farm,IPP Non-CHP,MN,1,,2.0,2.0,2.0,Onshore Wind Turbine,WND,WT,1,1999,10,2019,Murray,43.917000,-95.954000,Map,Map,MISO
30151,"Tri-State G & T Assn, Inc",527,Nucla,Electric Utility,CO,1,,11.5,12.0,12.0,Conventional Steam Coal,BIT,ST,11,1959,9,2019,Montrose,38.238300,-108.506900,Map,Map,WACM
30151,"Tri-State G & T Assn, Inc",527,Nucla,Electric Utility,CO,2,,11.5,12.0,12.0,Conventional Steam Coal,BIT,ST,11,1959,9,2019,Montrose,38.238300,-108.506900,Map,Map,WACM
30151,"Tri-State G & T Assn, Inc",527,Nucla,Electric Utility,CO,3,,11.5,12.0,12.0,Conventional Steam Coal,BIT,ST,11,1959,9,2019,Montrose,38.238300,-108.506900,Map,Map,WACM
30151,"Tri-State G & T Assn, Inc",527,Nucla,Electric Utility,CO,ST4,,79.3,64.0,64.0,Conventional Steam Coal,BIT,ST,1,1991,9,2019,Montrose,38.238300,-108.506900,Map,Map,WACM
12114,City of McGregor- (IA),1163,McGregor,Electric Utility,IA,3,,0.5,0.5,0.5,Petroleum Liquids,DFO,IC,7,1955,9,2019,Clayton,43.023733,-91.174930,Map,Map,MISO
9130,Hutchinson Utilities Comm,1980,Hutchinson Plant #1,Electric Utility,MN,8,,16.0,13.0,13.3,Natural Gas Fired Combined Cycle,NG,CS,1,1971,9,2019,McLeod,44.895741,-94.368430,Map,Map,MISO
4226,Consolidated Edison Co-NY Inc,2496,Hudson Avenue,Electric Utility,NY,4,,16.3,13.5,16.3,Petroleum Liquids,KER,GT,7,1970,9,2019,Kings,40.705200,-73.980700,Map,Map,NYIS
17043,City of Shelby - (OH),2943,Shelby Municipal Light Plant,Electric Utility,OH,IC1,,3.0,3.0,3.0,Petroleum Liquids,DFO,IC,5,1963,9,2019,Richland,40.880000,-82.656700,Map,Map,PJM
16572,Salt River Project,4941,Navajo,Electric Utility,AZ,NAV3,,803.1,750.0,750.0,Conventional Steam Coal,BIT,ST,4,1976,9,2019,Coconino,36.904700,-111.388600,Map,Map,SRP
55951,Exelon Nuclear,8011,Three Mile Island,IPP Non-CHP,PA,1,,980.8,802.8,829.0,Nuclear,NUC,ST,8,1974,9,2019,Dauphin,40.151500,-76.723200,Map,Map,PJM
2884,Cambria CoGen Co,10641,Cambria Cogen,IPP CHP,PA,GEN1,,98.0,88.0,88.0,Conventional Steam Coal,WC,ST,3,1991,9,2019,Cambria,40.474167,-78.701400,Map,Map,PJM
56888,Brea Generation LLC,10648,Olinda Landfill Gas Recovery Plant,Electric Utility,CA,GEN1,,1.8,1.7,1.7,Landfill Gas,LFG,IC,12,1985,9,2019,Orange,33.905600,-117.843900,Map,Map,CISO
56888,Brea Generation LLC,10648,Olinda Landfill Gas Recovery Plant,Electric Utility,CA,GEN2,,1.8,1.7,1.7,Landfill Gas,LFG,IC,12,1985,9,2019,Orange,33.905600,-117.843900,Map,Map,CISO
56888,Brea Generation LLC,10648,Olinda Landfill Gas Recovery Plant,Electric Utility,CA,GEN3,,1.8,1.7,1.7,Landfill Gas,LFG,IC,12,1985,9,2019,Orange,33.905600,-117.843900,Map,Map,CISO
13945,Beaumont Hospital Dearborn Campus,50260,Beaumont Hospital Dearborn Campus,Commercial Non-CHP,MI,500KW,,0.5,0.5,0.5,Petroleum Liquids,DFO,IC,1,1979,9,2019,Wayne,42.291700,-83.211900,Map,Map,MISO
54736,"VESI Pomona Energy Storage, Inc.",50300,VESI Pomona,IPP Non-CHP,CA,GEN1,,46.0,40.0,42.0,Natural Gas Fired Combustion Turbine,NG,GT,12,1985,9,2019,Los Angeles,34.059444,-117.774200,Map,Map,CISO
34672,DTE Energy Services,50407,Mobile Energy Services LLC,IPP CHP,AL,GEN5,,61.0,56.1,55.6,Wood/Wood Waste Biomass,WDS,ST,8,1985,9,2019,Mobile,30.736487,-88.051640,Map,Map,SOCO
34672,DTE Energy Services,50407,Mobile Energy Services LLC,IPP CHP,AL,GEN6,,35.7,33.2,33.6,Wood/Wood Waste Biomass,WDS,ST,7,1985,9,2019,Mobile,30.736487,-88.051640,Map,Map,SOCO
10273,Kimberly-Clark Corp,50410,Chester Operations,Industrial CHP,PA,5,,67.0,67.0,67.0,Petroleum Coke,PC,ST,5,1986,9,2019,Delaware,39.843743,-75.358800,Map,Map,PJM
54842,WM Renewable Energy LLC,50565,Monroe Livingston Gas Recovery,IPP Non-CHP,NY,GEN1,,0.8,0.8,0.8,Landfill Gas,LFG,IC,12,1988,9,2019,Monroe,42.990300,-77.801100,Map,Map,NYIS
54842,WM Renewable Energy LLC,50565,Monroe Livingston Gas Recovery,IPP Non-CHP,NY,GEN2,,0.8,0.8,0.8,Landfill Gas,LFG,IC,12,1988,9,2019,Monroe,42.990300,-77.801100,Map,Map,NYIS
8776,City of Holyoke Gas and Electric Dept.,54981,Harris Energy Realty,Electric Utility,MA,ALBA,,0.3,0.3,0.3,Conventional Hydroelectric,WAT,HY,1,1999,9,2019,Hampden,42.205236,-72.592860,Map,Map,ISNE
8776,City of Holyoke Gas and Electric Dept.,54981,Harris Energy Realty,Electric Utility,MA,ALBD,,0.5,0.4,0.4,Conventional Hydroelectric,WAT,HY,1,1982,9,2019,Hampden,42.205236,-72.592860,Map,Map,ISNE
20424,West Texas Wind Energy Partners LLC,55367,West Texas Wind Energy LLC,IPP Non-CHP,TX,01,,75.0,75.0,75.0,Onshore Wind Turbine,WND,WT,6,1999,9,2019,Upton,31.139200,-102.225300,Map,Map,ERCO
12773,Monmouth Energy Inc,55618,Monmouth Landfill Gas to Energy,IPP Non-CHP,NJ,GEN1,,4.9,3.3,4.1,Landfill Gas,LFG,GT,7,1998,9,2019,Monmouth,40.246827,-74.117420,Map,Map,PJM
12773,Monmouth Energy Inc,55618,Monmouth Landfill Gas to Energy,IPP Non-CHP,NJ,GEN2,,4.9,3.3,4.1,Landfill Gas,LFG,GT,7,1998,9,2019,Monmouth,40.246827,-74.117420,Map,Map,PJM
221,"Alaska Village Elec Coop, Inc",57067,Toksook Bay,Electric Utility,AK,UNIT1,,0.4,0.4,0.4,Petroleum Liquids,DFO,IC,8,2005,9,2019,Bethel,60.530142,-165.108600,Map,Map,
13206,Nantucket Electric Co,1615,Nantucket Hybrid,Electric Utility,MA,12,,3.7,2.8,3.0,Petroleum Liquids,DFO,GT,10,1988,8,2019,Nantucket,41.258300,-70.051700,Map,Map,ISNE
13206,Nantucket Electric Co,1615,Nantucket Hybrid,Electric Utility,MA,13,,3.7,2.9,3.3,Petroleum Liquids,DFO,GT,10,1988,8,2019,Nantucket,41.258300,-70.051700,Map,Map,ISNE
14624,PUD No 2 of Grant County,3888,Wanapum,Electric Utility,WA,4,,103.8,103.8,103.8,Conventional Hydroelectric,WAT,HY,9,1963,8,2019,Grant,46.873100,-119.970300,Map,Map,GCPD
221,"Alaska Village Elec Coop, Inc",6323,Kiana,Electric Utility,AK,3A,,0.3,0.4,0.4,Petroleum Liquids,DFO,IC,7,2000,8,2019,Northwest Arctic,66.973889,-160.428600,Map,Map,
55795,Bethlehem Renewable Energy LLC,56572,Bethlehem Renewable Energy LLC,IPP Non-CHP,PA,1,,5.5,3.7,3.7,Landfill Gas,LFG,GT,3,2008,8,2019,Northampton,40.621582,-75.310240,Map,Map,PJM
221,"Alaska Village Elec Coop, Inc",57057,Quinhagak,Electric Utility,AK,UNIT3,,0.4,0.4,0.4,Petroleum Liquids,DFO,IC,12,1986,8,2019,Bethel,59.747436,-161.910600,Map,Map,
61165,Mount Sinai Beth Israel,61569,Mount Sinai Beth Israel,Commercial Non-CHP,NY,EGEN3,,1.0,1.0,1.0,Petroleum Liquids,DFO,IC,1,1988,8,2019,New York,40.732666,-73.981600,Map,Map,NYIS
7140,Georgia Power Co,708,Hammond,Electric Utility,GA,1,,125.0,110.0,110.0,Conventional Steam Coal,BIT,ST,6,1954,7,2019,Floyd,34.252800,-85.345600,Map,Map,SOCO
7140,Georgia Power Co,708,Hammond,Electric Utility,GA,2,,125.0,110.0,110.0,Conventional Steam Coal,BIT,ST,9,1954,7,2019,Floyd,34.252800,-85.345600,Map,Map,SOCO
7140,Georgia Power Co,708,Hammond,Electric Utility,GA,3,,125.0,110.0,110.0,Conventional Steam Coal,BIT,ST,6,1955,7,2019,Floyd,34.252800,-85.345600,Map,Map,SOCO
7140,Georgia Power Co,708,Hammond,Electric Utility,GA,4,,578.0,510.0,510.0,Conventional Steam Coal,BIT,ST,12,1970,7,2019,Floyd,34.252800,-85.345600,Map,Map,SOCO
7140,Georgia Power Co,711,Langdale,Electric Utility,AL,5,,0.5,0.1,0.1,Conventional Hydroelectric,WAT,HY,12,1924,7,2019,Chambers,32.813836,-85.167790,Map,Map,SOCO
7140,Georgia Power Co,711,Langdale,Electric Utility,AL,6,,0.5,0.1,0.1,Conventional Hydroelectric,WAT,HY,12,1926,7,2019,Chambers,32.813836,-85.167790,Map,Map,SOCO
3892,City of Coffeyville - (KS),1271,Coffeyville,Electric Utility,KS,6,,18.7,16.0,18.5,Natural Gas Steam Turbine,NG,ST,8,1956,7,2019,Montgomery,37.037344,-95.612690,Map,Map,SWPP
228,City of Albany - (MO),2113,Albany,Electric Utility,MO,1,,2.1,2.1,2.1,Petroleum Liquids,DFO,IC,9,1969,7,2019,Gentry,40.245000,-94.339000,Map,Map,AECI
228,City of Albany - (MO),2113,Albany,Electric Utility,MO,2,,1.0,1.0,1.0,Petroleum Liquids,DFO,IC,5,1978,7,2019,Gentry,40.245000,-94.339000,Map,Map,AECI
228,City of Albany - (MO),2113,Albany,Electric Utility,MO,3,,0.7,0.6,0.6,Petroleum Liquids,DFO,IC,6,1954,7,2019,Gentry,40.245000,-94.339000,Map,Map,AECI
228,City of Albany - (MO),2113,Albany,Electric Utility,MO,IC5,,1.2,1.2,1.2,Petroleum Liquids,DFO,IC,5,1983,7,2019,Gentry,40.245000,-94.339000,Map,Map,AECI
228,City of Albany - (MO),2113,Albany,Electric Utility,MO,IC6,,1.2,1.2,1.2,Petroleum Liquids,DFO,IC,5,1983,7,2019,Gentry,40.245000,-94.339000,Map,Map,AECI
7140,Georgia Power Co,6124,McIntosh,Electric Utility,GA,1,,177.6,142.5,142.5,Conventional Steam Coal,SUB,ST,2,1979,7,2019,Effingham,32.356287,-81.168350,Map,Map,SOCO
17609,Southern California Edison Co,57540,Solar Photovoltaic Project #44,Electric Utility,CA,S44A,,0.5,0.5,0.5,Solar Photovoltaic,SUN,PV,2,2015,7,2019,Riverside,33.839167,-117.220800,Map,Map,CISO
17609,Southern California Edison Co,57540,Solar Photovoltaic Project #44,Electric Utility,CA,S44B,,0.5,0.5,0.5,Solar Photovoltaic,SUN,PV,2,2015,7,2019,Riverside,33.839167,-117.220800,Map,Map,CISO
17609,Southern California Edison Co,57540,Solar Photovoltaic Project #44,Electric Utility,CA,S44C,,0.5,0.5,0.5,Solar Photovoltaic,SUN,PV,2,2015,7,2019,Riverside,33.839167,-117.220800,Map,Map,CISO
17609,Southern California Edison Co,57540,Solar Photovoltaic Project #44,Electric Utility,CA,S44D,,0.5,0.5,0.5,Solar Photovoltaic,SUN,PV,2,2015,7,2019,Riverside,33.839167,-117.220800,Map,Map,CISO
17609,Southern California Edison Co,57540,Solar Photovoltaic Project #44,Electric Utility,CA,S44E,,0.5,0.5,0.5,Solar Photovoltaic,SUN,PV,2,2015,7,2019,Riverside,33.839167,-117.220800,Map,Map,CISO
17609,Southern California Edison Co,57540,Solar Photovoltaic Project #44,Electric Utility,CA,S44F,,0.5,0.5,0.5,Solar Photovoltaic,SUN,PV,2,2015,7,2019,Riverside,33.839167,-117.220800,Map,Map,CISO
17609,Southern California Edison Co,57540,Solar Photovoltaic Project #44,Electric Utility,CA,S44G,,0.5,0.5,0.5,Solar Photovoltaic,SUN,PV,2,2015,7,2019,Riverside,33.839167,-117.220800,Map,Map,CISO
17609,Southern California Edison Co,57540,Solar Photovoltaic Project #44,Electric Utility,CA,S44H,,0.5,0.5,0.5,Solar Photovoltaic,SUN,PV,2,2015,7,2019,Riverside,33.839167,-117.220800,Map,Map,CISO
17609,Southern California Edison Co,57540,Solar Photovoltaic Project #44,Electric Utility,CA,S44I,,0.5,0.5,0.5,Solar Photovoltaic,SUN,PV,2,2015,7,2019,Riverside,33.839167,-117.220800,Map,Map,CISO
17609,Southern California Edison Co,57540,Solar Photovoltaic Project #44,Electric Utility,CA,S44J,,0.5,0.5,0.5,Solar Photovoltaic,SUN,PV,2,2015,7,2019,Riverside,33.839167,-117.220800,Map,Map,CISO
17609,Southern California Edison Co,57540,Solar Photovoltaic Project #44,Electric Utility,CA,S44K,,0.5,0.5,0.5,Solar Photovoltaic,SUN,PV,2,2015,7,2019,Riverside,33.839167,-117.220800,Map,Map,CISO
17609,Southern California Edison Co,57540,Solar Photovoltaic Project #44,Electric Utility,CA,S44L,,0.5,0.5,0.5,Solar Photovoltaic,SUN,PV,2,2015,7,2019,Riverside,33.839167,-117.220800,Map,Map,CISO
17609,Southern California Edison Co,57540,Solar Photovoltaic Project #44,Electric Utility,CA,S44M,,0.5,0.5,0.5,Solar Photovoltaic,SUN,PV,2,2015,7,2019,Riverside,33.839167,-117.220800,Map,Map,CISO
17609,Southern California Edison Co,57540,Solar Photovoltaic Project #44,Electric Utility,CA,S44N,,0.5,0.5,0.5,Solar Photovoltaic,SUN,PV,2,2015,7,2019,Riverside,33.839167,-117.220800,Map,Map,CISO
17609,Southern California Edison Co,57540,Solar Photovoltaic Project #44,Electric Utility,CA,S44O,,0.5,0.5,0.5,Solar Photovoltaic,SUN,PV,2,2015,7,2019,Riverside,33.839167,-117.220800,Map,Map,CISO
17609,Southern California Edison Co,57540,Solar Photovoltaic Project #44,Electric Utility,CA,S44P,,0.5,0.5,0.5,Solar Photovoltaic,SUN,PV,2,2015,7,2019,Riverside,33.839167,-117.220800,Map,Map,CISO
4161,Constellation Power Source Gen,1553,Gould Street,IPP Non-CHP,MD,3,,103.5,97.0,97.0,Natural Gas Steam Turbine,NG,ST,12,1952,6,2019,Baltimore City,39.266300,-76.604700,Map,Map,PJM
20910,Wolverine Power Supply Coop,1880,Claude Vandyke,Electric Utility,MI,6,,23.0,19.3,23.9,Natural Gas Fired Combined Cycle,NG,CS,1,1967,6,2019,Allegan,42.731000,-85.855100,Map,Map,MISO
13781,Northern States Power Co - Minnesota,1910,Granite City,Electric Utility,MN,1,,18.0,13.0,16.0,Natural Gas Fired Combustion Turbine,NG,GT,5,1969,6,2019,Benton,45.575600,-94.140800,Map,Map,MISO
13781,Northern States Power Co - Minnesota,1910,Granite City,Electric Utility,MN,2,,18.0,13.0,16.0,Natural Gas Fired Combustion Turbine,NG,GT,5,1969,6,2019,Benton,45.575600,-94.140800,Map,Map,MISO
13781,Northern States Power Co - Minnesota,1910,Granite City,Electric Utility,MN,3,,18.0,13.0,16.0,Natural Gas Fired Combustion Turbine,NG,GT,5,1969,6,2019,Benton,45.575600,-94.140800,Map,Map,MISO
13781,Northern States Power Co - Minnesota,1910,Granite City,Electric Utility,MN,4,,18.0,13.0,16.0,Natural Gas Fired Combustion Turbine,NG,GT,5,1969,6,2019,Benton,45.575600,-94.140800,Map,Map,MISO
12685,Entergy Mississippi LLC,2053,Rex Brown,Electric Utility,MS,4,,238.7,197.7,198.6,Natural Gas Steam Turbine,NG,ST,7,1959,6,2019,Hinds,32.356954,-90.212970,Map,Map,MISO
12685,Entergy Mississippi LLC,2053,Rex Brown,Electric Utility,MS,GT1,,10.0,10.3,10.3,Petroleum Liquids,DFO,GT,11,1968,6,2019,Hinds,32.356954,-90.212970,Map,Map,MISO
1615,Town of Berlin - (MD),6565,Berlin,Electric Utility,MD,2A,,1.8,1.8,1.8,Petroleum Liquids,DFO,IC,7,1999,6,2019,Worcester,38.327778,-75.217220,Map,Map,PJM
4458,Covanta Warren Energy Resource Co LP,10012,Covanta Warren Energy,IPP Non-CHP,NJ,1,,13.5,10.0,10.5,Municipal Solid Waste,MSW,ST,9,1988,6,2019,Warren,40.820500,-75.011200,Map,Map,PJM
61138,City Point Energy Center,10377,James River Genco LLC,IPP CHP,VA,GEN1,,57.4,46.3,46.3,Conventional Steam Coal,BIT,ST,1,1988,6,2019,Hopewell City,37.293900,-77.269700,Map,Map,PJM
61138,City Point Energy Center,10377,James River Genco LLC,IPP CHP,VA,GEN2,,57.4,46.3,46.3,Conventional Steam Coal,BIT,ST,1,1988,6,2019,Hopewell City,37.293900,-77.269700,Map,Map,PJM
7136,Georgia-Pacific Consr Prods LP-Naheola,10699,Georgia-Pacific Consr Prods LP-Naheola,Industrial CHP,AL,GEN2,,15.6,12.4,12.5,Wood/Wood Waste Biomass,BLQ,ST,5,1962,6,2019,Choctaw,32.226800,-88.025200,Map,Map,SOCO
60771,Marcus Hook 50 L.P,50074,Marcus Hook Refinery Cogen,IPP CHP,PA,GEN1,,50.5,48.0,50.0,Natural Gas Fired Combustion Turbine,NG,GT,11,1987,6,2019,Delaware,39.810300,-75.428100,Map,Map,PJM
56355,LES Project Holdings LLC,52051,I 95 Municipal Landfill Phase I,IPP Non-CHP,VA,UNT1,,0.8,0.8,0.8,Landfill Gas,LFG,IC,1,1992,6,2019,Fairfax,38.689200,-77.237500,Map,Map,PJM
56355,LES Project Holdings LLC,52051,I 95 Municipal Landfill Phase I,IPP Non-CHP,VA,UNT2,,0.8,0.8,0.8,Landfill Gas,LFG,IC,1,1992,6,2019,Fairfax,38.689200,-77.237500,Map,Map,PJM
56355,LES Project Holdings LLC,52051,I 95 Municipal Landfill Phase I,IPP Non-CHP,VA,UNT3,,0.8,0.8,0.8,Landfill Gas,LFG,IC,1,1992,6,2019,Fairfax,38.689200,-77.237500,Map,Map,PJM
56355,LES Project Holdings LLC,52051,I 95 Municipal Landfill Phase I,IPP Non-CHP,VA,UNT4,,0.8,0.8,0.8,Landfill Gas,LFG,IC,1,1992,6,2019,Fairfax,38.689200,-77.237500,Map,Map,PJM
18340,PES,52106,Philadelphia Refinery,Industrial CHP,PA,GEN1,,10.0,7.7,2.7,Other Gases,OG,ST,1,1952,6,2019,Philadelphia,39.905800,-75.212200,Map,Map,PJM
18340,PES,52106,Philadelphia Refinery,Industrial CHP,PA,GEN2,,10.0,6.7,6.0,Other Gases,OG,ST,1,1952,6,2019,Philadelphia,39.905800,-75.212200,Map,Map,PJM
18340,PES,52106,Philadelphia Refinery,Industrial CHP,PA,GEN3,,10.0,0.4,4.3,Other Gases,OG,ST,1,1952,6,2019,Philadelphia,39.905800,-75.212200,Map,Map,PJM
5499,Targa Midstream Services LP,54531,Stingray Facility,Industrial Non-CHP,LA,1S72,,2.5,2.5,2.3,Natural Gas Fired Combustion Turbine,NG,GT,9,1977,6,2019,Cameron,29.761400,-93.608600,Map,Map,MISO
56355,LES Project Holdings LLC,54536,Sumpter Energy Associates,IPP Non-CHP,MI,0201,,0.8,0.8,0.8,Landfill Gas,LFG,IC,7,1998,6,2019,Wayne,42.105669,-83.498850,Map,Map,MISO
56772,"TX LFG Energy, LP",55554,Coastal Plains,IPP Non-CHP,TX,UNT1,,1.7,1.7,1.7,Landfill Gas,LFG,IC,3,2003,6,2019,Galveston,29.427503,-95.187640,Map,Map,ERCO
56772,"TX LFG Energy, LP",55554,Coastal Plains,IPP Non-CHP,TX,UNT3,,1.7,1.7,1.7,Landfill Gas,LFG,IC,3,2003,6,2019,Galveston,29.427503,-95.187640,Map,Map,ERCO
56772,"TX LFG Energy, LP",55554,Coastal Plains,IPP Non-CHP,TX,UNT4,,1.7,1.7,1.7,Landfill Gas,LFG,IC,3,2003,6,2019,Galveston,29.427503,-95.187640,Map,Map,ERCO
61336,Katahdin KI 50 LLC,55830,East Millinocket Mill,Industrial CHP,ME,M2S1,,15.6,14.5,14.7,Wood/Wood Waste Biomass,WDS,ST,7,1954,6,2019,Penobscot,45.621900,-68.575600,Map,Map,ISNE
61336,Katahdin KI 50 LLC,55830,East Millinocket Mill,Industrial CHP,ME,M2S2,,15.6,14.5,14.7,Wood/Wood Waste Biomass,WDS,ST,7,1956,6,2019,Penobscot,45.621900,-68.575600,Map,Map,ISNE
61336,Katahdin KI 50 LLC,55830,East Millinocket Mill,Industrial CHP,ME,M2S3,,30.2,28.1,28.4,Wood/Wood Waste Biomass,WDS,ST,5,1990,6,2019,Penobscot,45.621900,-68.575600,Map,Map,ISNE
221,"Alaska Village Elec Coop, Inc",57060,Elim,Electric Utility,AK,UNIT3,,1.0,0.5,0.5,Petroleum Liquids,DFO,IC,6,2003,6,2019,Nome,64.616558,-162.263700,Map,Map,
59452,"Ingenco Renewable Development, LLC",60222,Bristol Plant,IPP Non-CHP,VA,B1,,0.3,0.3,0.3,Landfill Gas,LFG,IC,11,2016,6,2019,Bristol City,36.601940,-82.143090,Map,Map,TVA
59452,"Ingenco Renewable Development, LLC",60222,Bristol Plant,IPP Non-CHP,VA,B2,,0.3,0.3,0.3,Landfill Gas,LFG,IC,11,2016,6,2019,Bristol City,36.601940,-82.143090,Map,Map,TVA
59452,"Ingenco Renewable Development, LLC",60222,Bristol Plant,IPP Non-CHP,VA,B3,,0.3,0.3,0.3,Landfill Gas,LFG,IC,11,2016,6,2019,Bristol City,36.601940,-82.143090,Map,Map,TVA
59452,"Ingenco Renewable Development, LLC",60222,Bristol Plant,IPP Non-CHP,VA,B4,,0.3,0.3,0.3,Landfill Gas,LFG,IC,11,2016,6,2019,Bristol City,36.601940,-82.143090,Map,Map,TVA
59452,"Ingenco Renewable Development, LLC",60222,Bristol Plant,IPP Non-CHP,VA,B5,,0.3,0.3,0.3,Landfill Gas,LFG,IC,11,2016,6,2019,Bristol City,36.601940,-82.143090,Map,Map,TVA
59452,"Ingenco Renewable Development, LLC",60222,Bristol Plant,IPP Non-CHP,VA,B6,,0.3,0.3,0.3,Landfill Gas,LFG,IC,11,2016,6,2019,Bristol City,36.601940,-82.143090,Map,Map,TVA
17633,Southern Indiana Gas & Elec Co,1013,Northeast (IN),Electric Utility,IN,1,,10.7,10.0,12.0,Natural Gas Fired Combustion Turbine,NG,GT,6,1963,5,2019,Vanderburgh,38.021100,-87.517200,Map,Map,MISO
17633,Southern Indiana Gas & Elec Co,1013,Northeast (IN),Electric Utility,IN,2,,11.5,10.0,12.0,Natural Gas Fired Combustion Turbine,NG,GT,6,1964,5,2019,Vanderburgh,38.021100,-87.517200,Map,Map,MISO
29926,Entergy Nuclear Generation Co,1590,Pilgrim Nuclear Power Station,IPP Non-CHP,MA,1,,670.0,673.6,680.6,Nuclear,NUC,ST,12,1972,5,2019,Plymouth,41.943800,-70.578000,Map,Map,ISNE
58620,AEP Generation Resources Inc,2840,Conesville,IPP Non-CHP,OH,5,,443.9,375.0,375.0,Conventional Steam Coal,BIT,ST,11,1976,5,2019,Coshocton,40.184200,-81.881100,Map,Map,PJM
58620,AEP Generation Resources Inc,2840,Conesville,IPP Non-CHP,OH,6,,443.9,375.0,375.0,Conventional Steam Coal,BIT,ST,6,1978,5,2019,Coshocton,40.184200,-81.881100,Map,Map,PJM
15248,Portland General Electric Co,3045,Faraday,Electric Utility,OR,1,,3.1,3.9,3.9,Conventional Hydroelectric,WAT,HY,2,1907,5,2019,Clackamas,45.268045,-122.320100,Map,Map,PGE
15248,Portland General Electric Co,3045,Faraday,Electric Utility,OR,2,,3.1,3.9,3.9,Conventional Hydroelectric,WAT,HY,2,1907,5,2019,Clackamas,45.268045,-122.320100,Map,Map,PGE
15248,Portland General Electric Co,3045,Faraday,Electric Utility,OR,3,,2.7,3.4,3.4,Conventional Hydroelectric,WAT,HY,7,1908,5,2019,Clackamas,45.268045,-122.320100,Map,Map,PGE
15248,Portland General Electric Co,3045,Faraday,Electric Utility,OR,4,,4.5,5.6,5.6,Conventional Hydroelectric,WAT,HY,10,1909,5,2019,Clackamas,45.268045,-122.320100,Map,Map,PGE
15248,Portland General Electric Co,3045,Faraday,Electric Utility,OR,5,,4.0,5.1,5.1,Conventional Hydroelectric,WAT,HY,8,1910,5,2019,Clackamas,45.268045,-122.320100,Map,Map,PGE
13781,Northern States Power Co - Minnesota,3982,Bay Front,Electric Utility,WI,4,,20.0,15.0,15.0,Wood/Wood Waste Biomass,WDS,ST,1,1949,5,2019,Ashland,46.587222,-90.901700,Map,Map,MISO
4329,"Copper Valley Elec Assn, Inc",6305,Glennallen,Electric Utility,AK,3,,0.5,0.5,0.5,Petroleum Liquids,DFO,IC,4,1963,5,2019,Valdez Cordova,62.110415,-145.532500,Map,Map,
4329,"Copper Valley Elec Assn, Inc",6305,Glennallen,Electric Utility,AK,4,,0.5,0.5,0.5,Petroleum Liquids,DFO,IC,4,1966,5,2019,Valdez Cordova,62.110415,-145.532500,Map,Map,
4329,"Copper Valley Elec Assn, Inc",6305,Glennallen,Electric Utility,AK,5,,0.5,0.5,0.5,Petroleum Liquids,DFO,IC,4,1966,5,2019,Valdez Cordova,62.110415,-145.532500,Map,Map,
20847,Wisconsin Electric Power Co,7901,Byron,Electric Utility,WI,1,,0.7,0.1,0.1,Onshore Wind Turbine,WND,WT,6,1999,5,2019,Fond Du Lac,43.657500,-88.438100,Map,Map,MISO
20847,Wisconsin Electric Power Co,7901,Byron,Electric Utility,WI,2,,0.7,0.1,0.1,Onshore Wind Turbine,WND,WT,6,1999,5,2019,Fond Du Lac,43.657500,-88.438100,Map,Map,MISO
50097,Verso Luke LLC,50282,Luke Mill,Industrial CHP,MD,GEN1,,35.0,32.0,26.0,Conventional Steam Coal,BIT,ST,1,1958,5,2019,Allegany,39.473600,-79.056900,Map,Map,PJM
50097,Verso Luke LLC,50282,Luke Mill,Industrial CHP,MD,GEN2,,30.0,28.0,24.0,Conventional Steam Coal,BIT,ST,1,1979,5,2019,Allegany,39.473600,-79.056900,Map,Map,PJM
9312,IPC-Mansfield Mill,54091,Mansfield Mill,Industrial CHP,LA,GEN4,,25.0,29.5,29.5,Natural Gas Fired Combustion Turbine,NG,GT,8,1995,5,2019,DeSoto,32.157500,-93.556200,Map,Map,MISO
12382,Metropolitan Dist of Hartford,54301,Colebrook Hydroelectric,IPP Non-CHP,CT,BK1,,1.5,1.4,1.4,Conventional Hydroelectric,WAT,HY,4,1988,5,2019,Litchfield,42.007778,-73.035600,Map,Map,ISNE
12382,Metropolitan Dist of Hartford,54301,Colebrook Hydroelectric,IPP Non-CHP,CT,BK2,,1.5,1.4,1.4,Conventional Hydroelectric,WAT,HY,4,1988,5,2019,Litchfield,42.007778,-73.035600,Map,Map,ISNE
13582,NRG Astoria Gas Turbine Operations Inc,55243,Astoria Gas Turbines,IPP Non-CHP,NY,11,,23.8,0.0,0.0,Petroleum Liquids,KER,GT,1,1971,5,2019,Queens,40.787000,-73.904800,Map,Map,NYIS
221,"Alaska Village Elec Coop, Inc",57052,Savoonga,Electric Utility,AK,UNIT2,,0.5,0.5,0.5,Petroleum Liquids,DFO,IC,7,2008,5,2019,Nome,63.695267,-170.475700,Map,Map,
62639,"Rosendale Renewable Energy, LLC",58555,Oshkosh Foundation Rosedale Biodigester LLC,IPP Non-CHP,WI,95100,,1.4,1.4,1.4,Other Waste Biomass,OBG,IC,4,2014,5,2019,Winnebago,43.867778,-88.718060,Map,Map,MISO
195,Alabama Power Co,8,Gorgas,Electric Utility,AL,10,,788.8,727.7,727.7,Conventional Steam Coal,BIT,ST,10,1972,4,2019,Walker,33.644344,-87.196490,Map,Map,SOCO
195,Alabama Power Co,8,Gorgas,Electric Utility,AL,8,,187.5,163.0,163.0,Conventional Steam Coal,BIT,ST,5,1956,4,2019,Walker,33.644344,-87.196490,Map,Map,SOCO
195,Alabama Power Co,8,Gorgas,Electric Utility,AL,9,,190.4,172.0,172.0,Conventional Steam Coal,BIT,ST,6,1958,4,2019,Walker,33.644344,-87.196490,Map,Map,SOCO
11701,City of Marquette - (MI),1843,Shiras,Electric Utility,MI,1,,12.5,11.6,11.6,Conventional Steam Coal,BIT,ST,1,1967,4,2019,Marquette,46.530598,-87.392210,Map,Map,MISO
11701,City of Marquette - (MI),1843,Shiras,Electric Utility,MI,2,,21.0,19.5,19.5,Conventional Steam Coal,BIT,ST,1,1972,4,2019,Marquette,46.530598,-87.392210,Map,Map,MISO
11701,City of Marquette - (MI),1843,Shiras,Electric Utility,MI,3,,44.0,41.0,41.0,Conventional Steam Coal,SUB,ST,4,1983,4,2019,Marquette,46.530598,-87.392210,Map,Map,MISO
55768,RC Cape May Holdings LLC,2378,B L England,IPP Non-CHP,NJ,2,,163.2,146.0,146.0,Conventional Steam Coal,BIT,ST,11,1964,4,2019,Cape May,39.290800,-74.636400,Map,Map,PJM
55768,RC Cape May Holdings LLC,2378,B L England,IPP Non-CHP,NJ,3,,176.4,146.0,146.0,Petroleum Liquids,RFO,ST,12,1974,4,2019,Cape May,39.290800,-74.636400,Map,Map,PJM
221,"Alaska Village Elec Coop, Inc",6348,Togiak,Electric Utility,AK,2a,,0.5,0.5,0.5,Petroleum Liquids,DFO,IC,10,2004,4,2019,Dillingham,59.059744,-160.380300,Map,Map,
221,"Alaska Village Elec Coop, Inc",6348,Togiak,Electric Utility,AK,4,,0.3,0.3,0.3,Petroleum Liquids,DFO,IC,11,1986,4,2019,Dillingham,59.059744,-160.380300,Map,Map,
221,"Alaska Village Elec Coop, Inc",6348,Togiak,Electric Utility,AK,4B,,0.8,0.8,0.8,Petroleum Liquids,DFO,IC,10,2002,4,2019,Dillingham,59.059744,-160.380300,Map,Map,
221,"Alaska Village Elec Coop, Inc",6348,Togiak,Electric Utility,AK,5A,,0.8,0.8,0.8,Petroleum Liquids,DFO,IC,5,2014,4,2019,Dillingham,59.059744,-160.380300,Map,Map,
10628,City of Lakin - (KS),7393,Lakin Municipal,Electric Utility,KS,LK1,,4.4,4.1,4.1,Natural Gas Internal Combustion Engine,NG,IC,1,1990,4,2019,Kearny,37.941987,-101.249900,Map,Map,SWPP
55739,Edgecombe Operating Services LLC,10384,Edgecombe Genco LLC,IPP CHP,NC,GEN1,,57.4,57.8,57.8,Conventional Steam Coal,BIT,ST,10,1990,4,2019,Edgecombe,36.037318,-77.753350,Map,Map,PJM
55739,Edgecombe Operating Services LLC,10384,Edgecombe Genco LLC,IPP CHP,NC,GEN2,,57.4,57.8,57.8,Conventional Steam Coal,BIT,ST,10,1990,4,2019,Edgecombe,36.037318,-77.753350,Map,Map,PJM
7136,Georgia-Pacific Consr Prods LP-Naheola,10699,Georgia-Pacific Consr Prods LP-Naheola,Industrial CHP,AL,GEN1,,15.6,12.4,12.5,Wood/Wood Waste Biomass,BLQ,ST,8,1959,4,2019,Choctaw,32.226800,-88.025200,Map,Map,SOCO
54842,WM Renewable Energy LLC,54392,BJ Gas Recovery,IPP Non-CHP,GA,GEN1,,0.8,0.8,0.8,Landfill Gas,LFG,IC,9,1993,4,2019,Gwinnett,33.930000,-84.237800,Map,Map,SOCO
54842,WM Renewable Energy LLC,54392,BJ Gas Recovery,IPP Non-CHP,GA,GEN3,,0.8,0.8,0.8,Landfill Gas,LFG,IC,9,1993,4,2019,Gwinnett,33.930000,-84.237800,Map,Map,SOCO
4767,Dane County Public Works,55770,Dane County Landfill #2 Rodefeld,IPP Non-CHP,WI,GEN1,,0.8,0.8,0.8,Landfill Gas,LFG,IC,10,1997,4,2019,Dane,43.045300,-89.253900,Map,Map,MISO
4767,Dane County Public Works,55770,Dane County Landfill #2 Rodefeld,IPP Non-CHP,WI,GEN2,,0.8,0.8,0.8,Landfill Gas,LFG,IC,10,1997,4,2019,Dane,43.045300,-89.253900,Map,Map,MISO
4767,Dane County Public Works,55770,Dane County Landfill #2 Rodefeld,IPP Non-CHP,WI,GEN3,,0.8,0.8,0.8,Landfill Gas,LFG,IC,4,2004,4,2019,Dane,43.045300,-89.253900,Map,Map,MISO
4767,Dane County Public Works,55770,Dane County Landfill #2 Rodefeld,IPP Non-CHP,WI,GEN4,,1.6,1.6,1.6,Landfill Gas,LFG,IC,12,2004,4,2019,Dane,43.045300,-89.253900,Map,Map,MISO
4767,Dane County Public Works,55770,Dane County Landfill #2 Rodefeld,IPP Non-CHP,WI,GEN5,,0.8,0.8,0.8,Landfill Gas,LFG,IC,4,2012,4,2019,Dane,43.045300,-89.253900,Map,Map,MISO
4767,Dane County Public Works,55770,Dane County Landfill #2 Rodefeld,IPP Non-CHP,WI,GEN6,,0.8,0.8,0.8,Landfill Gas,LFG,IC,1,2011,4,2019,Dane,43.045300,-89.253900,Map,Map,MISO
4767,Dane County Public Works,55770,Dane County Landfill #2 Rodefeld,IPP Non-CHP,WI,GEN7,,0.8,0.8,0.8,Landfill Gas,LFG,IC,1,2011,4,2019,Dane,43.045300,-89.253900,Map,Map,MISO
50158,Innovative Energy Systems Inc,58295,SREC Bath LFGTE,IPP Non-CHP,NY,GEN1,,1.6,1.6,1.6,Landfill Gas,LFG,IC,11,2010,4,2019,Steuben,42.322263,-77.385650,Map,Map,NYIS
50158,Innovative Energy Systems Inc,58295,SREC Bath LFGTE,IPP Non-CHP,NY,GEN2,,1.6,1.6,1.6,Landfill Gas,LFG,IC,11,2010,4,2019,Steuben,42.322263,-77.385650,Map,Map,NYIS
17043,City of Shelby - (OH),61076,City of Shelby Electric Distribution,Electric Utility,OH,PSG1,,1.8,1.8,1.8,Petroleum Liquids,DFO,IC,7,2016,4,2019,Richland,40.896088,-82.665640,Map,Map,PJM
6455,"Duke Energy Florida, LLC",630,Higgins,Electric Utility,FL,P1,,33.7,20.0,20.0,Natural Gas Fired Combustion Turbine,NG,GT,3,1969,3,2019,Pinellas,28.003262,-82.661510,Map,Map,FPC
4161,Constellation Power Source Gen,1559,Riverside (MD),IPP Non-CHP,MD,GT7,,25.0,19.0,22.0,Petroleum Liquids,DFO,GT,9,1970,3,2019,Baltimore,39.236900,-76.513300,Map,Map,PJM
5109,DTE Electric Company,1743,St Clair,Electric Utility,MI,1,,168.7,151.0,158.0,Conventional Steam Coal,RC,ST,8,1953,3,2019,St Clair,42.764200,-82.471900,Map,Map,MISO
20847,Wisconsin Electric Power Co,1769,Presque Isle,Electric Utility,MI,5,,90.0,55.0,55.0,Conventional Steam Coal,SUB,ST,12,1974,3,2019,Marquette,46.578900,-87.395000,Map,Map,MISO
20847,Wisconsin Electric Power Co,1769,Presque Isle,Electric Utility,MI,6,,90.0,55.0,55.0,Conventional Steam Coal,SUB,ST,4,1975,3,2019,Marquette,46.578900,-87.395000,Map,Map,MISO
20847,Wisconsin Electric Power Co,1769,Presque Isle,Electric Utility,MI,7,,90.0,83.0,83.0,Conventional Steam Coal,SUB,ST,6,1978,3,2019,Marquette,46.578900,-87.395000,Map,Map,MISO
20847,Wisconsin Electric Power Co,1769,Presque Isle,Electric Utility,MI,8,,90.0,83.0,83.0,Conventional Steam Coal,SUB,ST,11,1978,3,2019,Marquette,46.578900,-87.395000,Map,Map,MISO
20847,Wisconsin Electric Power Co,1769,Presque Isle,Electric Utility,MI,9,,90.0,83.0,83.0,Conventional Steam Coal,SUB,ST,8,1979,3,2019,Marquette,46.578900,-87.395000,Map,Map,MISO
7570,Great River Energy,2039,Elk River,Electric Utility,MN,1,,11.5,8.9,8.9,Municipal Solid Waste,MSW,ST,1,1951,3,2019,Sherburne,45.296797,-93.558450,Map,Map,MISO
7570,Great River Energy,2039,Elk River,Electric Utility,MN,2,,11.5,9.0,9.0,Municipal Solid Waste,MSW,ST,1,1951,3,2019,Sherburne,45.296797,-93.558450,Map,Map,MISO
7570,Great River Energy,2039,Elk River,Electric Utility,MN,3,,25.0,16.9,16.9,Municipal Solid Waste,MSW,ST,1,1959,3,2019,Sherburne,45.296797,-93.558450,Map,Map,MISO
13337,Nebraska Public Power District,2278,Spencer Hydro,Electric Utility,NE,1,,0.8,0.8,0.8,Conventional Hydroelectric,WAT,HY,1,1927,3,2019,Boyd,42.809337,-98.656280,Map,Map,SWPP
13337,Nebraska Public Power District,2278,Spencer Hydro,Electric Utility,NE,2,,1.6,0.4,0.4,Conventional Hydroelectric,WAT,HY,1,1952,3,2019,Boyd,42.809337,-98.656280,Map,Map,SWPP
15474,Public Service Co of Oklahoma,2966,Weleetka,Electric Utility,OK,6,,53.0,55.0,66.0,Natural Gas Fired Combustion Turbine,NG,GT,9,1976,3,2019,Okfuskee,35.323300,-96.135200,Map,Map,SWPP
19876,Virginia Electric & Power Co,3796,Bremo Bluff,Electric Utility,VA,3,,69.0,71.0,74.0,Natural Gas Steam Turbine,NG,ST,6,1950,3,2019,Fluvanna,37.708900,-78.287800,Map,Map,PJM
19876,Virginia Electric & Power Co,3796,Bremo Bluff,Electric Utility,VA,4,,185.2,156.0,161.0,Natural Gas Steam Turbine,NG,ST,8,1958,3,2019,Fluvanna,37.708900,-78.287800,Map,Map,PJM
19876,Virginia Electric & Power Co,3797,Chesterfield,Electric Utility,VA,3,,112.5,97.5,101.5,Conventional Steam Coal,BIT,ST,12,1952,3,2019,Chesterfield,37.382200,-77.383300,Map,Map,PJM
19876,Virginia Electric & Power Co,3797,Chesterfield,Electric Utility,VA,4,,187.5,162.5,167.5,Conventional Steam Coal,BIT,ST,6,1960,3,2019,Chesterfield,37.382200,-77.383300,Map,Map,PJM
19876,Virginia Electric & Power Co,3804,Possum Point,Electric Utility,VA,3,,113.6,96.0,100.0,Natural Gas Steam Turbine,NG,ST,6,1955,3,2019,Prince William,38.536700,-77.280600,Map,Map,PJM
19876,Virginia Electric & Power Co,3804,Possum Point,Electric Utility,VA,4,,239.3,220.0,225.0,Natural Gas Steam Turbine,NG,ST,4,1962,3,2019,Prince William,38.536700,-77.280600,Map,Map,PJM
19876,Virginia Electric & Power Co,3809,Yorktown,Electric Utility,VA,1,,187.5,159.0,162.0,Conventional Steam Coal,BIT,ST,7,1957,3,2019,York,37.214400,-76.461100,Map,Map,PJM
19876,Virginia Electric & Power Co,3809,Yorktown,Electric Utility,VA,2,,187.5,164.0,165.0,Conventional Steam Coal,BIT,ST,1,1959,3,2019,York,37.214400,-76.461100,Map,Map,PJM
15430,Detroit Renewable Power,10033,Greater Detroit Resource Recovery,Commercial CHP,MI,GEN1,,68.4,63.6,64.3,Municipal Solid Waste,MSW,ST,12,1988,3,2019,Wayne,42.367800,-83.051400,Map,Map,MISO
59879,Greenleaf Energy LLC,10350,Greenleaf 1 Power Plant,IPP CHP,CA,GEN1,CC1,46.0,42.0,44.0,Natural Gas Fired Combined Cycle,NG,CT,2,1989,3,2019,Sutter,39.052922,-121.696100,Map,Map,CISO
59879,Greenleaf Energy LLC,10350,Greenleaf 1 Power Plant,IPP CHP,CA,GEN2,CC1,20.0,8.0,6.0,Natural Gas Fired Combined Cycle,NG,CA,2,1989,3,2019,Sutter,39.052922,-121.696100,Map,Map,CISO
50129,Georgia-Pacific Cons Op LLC Port Hudson,10612,Georgia-Pacific Port Hudson,Industrial CHP,LA,GEN1,,67.7,67.7,67.7,Wood/Wood Waste Biomass,BLQ,ST,6,1986,3,2019,East Baton Rouge,30.654700,-91.280000,Map,Map,MISO
16721,S D Warren Co.- Westbrook,50447,S D Warren Westbrook,Industrial CHP,ME,GN18,,0.4,0.4,0.4,Conventional Hydroelectric,WAT,HY,1,1987,3,2019,Cumberland,43.684857,-70.353150,Map,Map,ISNE
16721,S D Warren Co.- Westbrook,50447,S D Warren Westbrook,Industrial CHP,ME,GN19,,0.4,0.4,0.4,Conventional Hydroelectric,WAT,HY,1,1987,3,2019,Cumberland,43.684857,-70.353150,Map,Map,ISNE
16721,S D Warren Co.- Westbrook,50447,S D Warren Westbrook,Industrial CHP,ME,GN20,,0.4,0.4,0.4,Conventional Hydroelectric,WAT,HY,1,1987,3,2019,Cumberland,43.684857,-70.353150,Map,Map,ISNE
19876,Virginia Electric & Power Co,50966,Bellmeade Power Station,Electric Utility,VA,1,G781,110.0,95.0,95.0,Natural Gas Fired Combined Cycle,NG,CT,2,1997,3,2019,Richmond City,37.496400,-77.431700,Map,Map,PJM
19876,Virginia Electric & Power Co,50966,Bellmeade Power Station,Electric Utility,VA,2,G781,110.0,95.0,95.0,Natural Gas Fired Combined Cycle,NG,CT,2,1997,3,2019,Richmond City,37.496400,-77.431700,Map,Map,PJM
19876,Virginia Electric & Power Co,50966,Bellmeade Power Station,Electric Utility,VA,3,G781,110.0,77.0,77.0,Natural Gas Fired Combined Cycle,NG,CA,2,1997,3,2019,Richmond City,37.496400,-77.431700,Map,Map,PJM
19876,Virginia Electric & Power Co,52007,Mecklenburg Power Station,Electric Utility,VA,GEN1,,69.9,69.0,69.0,Conventional Steam Coal,BIT,ST,11,1992,3,2019,Mecklenburg,36.600000,-78.530000,Map,Map,PJM
19876,Virginia Electric & Power Co,52007,Mecklenburg Power Station,Electric Utility,VA,GEN2,,69.9,69.0,69.0,Conventional Steam Coal,BIT,ST,11,1992,3,2019,Mecklenburg,36.600000,-78.530000,Map,Map,PJM
19876,Virginia Electric & Power Co,52118,Multitrade of Pittsylvania LP,Electric Utility,VA,GEN1,,45.0,41.5,41.5,Wood/Wood Waste Biomass,WDS,ST,6,1994,3,2019,Pittsylvania,37.104141,-79.276960,Map,Map,PJM
19876,Virginia Electric & Power Co,52118,Multitrade of Pittsylvania LP,Electric Utility,VA,GEN2,,45.0,41.5,41.5,Wood/Wood Waste Biomass,WDS,ST,6,1994,3,2019,Pittsylvania,37.104141,-79.276960,Map,Map,PJM
11560,City of Manassas - (VA),56491,Dean Drive Area Electric Generators,Electric Utility,VA,PG1,,1.6,1.6,1.6,Petroleum Liquids,DFO,IC,4,2007,3,2019,Manassas City,38.748600,-77.490800,Map,Map,PJM
11560,City of Manassas - (VA),56491,Dean Drive Area Electric Generators,Electric Utility,VA,PG2,,1.6,1.6,1.6,Petroleum Liquids,DFO,IC,4,2007,3,2019,Manassas City,38.748600,-77.490800,Map,Map,PJM
18445,City of Tallahassee - (FL),956,C H Corn Hydroelectric Facility,Electric Utility,FL,1,,4.4,4.0,4.0,Conventional Hydroelectric,WAT,HY,9,1985,2,2019,Leon,30.388517,-84.646620,Map,Map,FPC
18445,City of Tallahassee - (FL),956,C H Corn Hydroelectric Facility,Electric Utility,FL,2,,4.4,4.0,4.0,Conventional Hydroelectric,WAT,HY,8,1985,2,2019,Leon,30.388517,-84.646620,Map,Map,FPC
18445,City of Tallahassee - (FL),956,C H Corn Hydroelectric Facility,Electric Utility,FL,3,,3.4,3.0,3.0,Conventional Hydroelectric,WAT,HY,1,1986,2,2019,Leon,30.388517,-84.646620,Map,Map,FPC
10171,Kentucky Utilities Co,1355,E W Brown,Electric Utility,KY,1,,113.6,106.0,107.0,Conventional Steam Coal,BIT,ST,5,1957,2,2019,Mercer,37.788310,-84.712570,Map,Map,LGEE
10171,Kentucky Utilities Co,1355,E W Brown,Electric Utility,KY,2,,179.5,166.0,168.0,Conventional Steam Coal,BIT,ST,6,1963,2,2019,Mercer,37.788310,-84.712570,Map,Map,LGEE
1692,Big Rivers Electric Corp,1382,HMP&L Station Two Henderson,Electric Utility,KY,1,,200.0,153.0,153.0,Conventional Steam Coal,BIT,ST,6,1973,2,2019,Henderson,37.646900,-87.502800,Map,Map,MISO
1692,Big Rivers Electric Corp,1382,HMP&L Station Two Henderson,Electric Utility,KY,2,,205.0,159.0,159.0,Conventional Steam Coal,BIT,ST,4,1974,2,2019,Henderson,37.646900,-87.502800,Map,Map,MISO
15534,TalenEnergy Montour LLC,3149,TalenEnergy Montour,IPP Non-CHP,PA,11,,17.2,11.0,11.8,Conventional Steam Coal,RC,ST,4,1973,2,2019,Montour,41.071400,-76.667200,Map,Map,PJM
6526,FirstEnergy Generation Corp,6094,FirstEnergy Bruce Mansfield,IPP Non-CHP,PA,1,,913.7,830.0,830.0,Conventional Steam Coal,RC,ST,4,1976,2,2019,Beaver,40.634800,-80.415900,Map,Map,PJM
6526,FirstEnergy Generation Corp,6094,FirstEnergy Bruce Mansfield,IPP Non-CHP,PA,2,,913.7,830.0,830.0,Conventional Steam Coal,RC,ST,10,1977,2,2019,Beaver,40.634800,-80.415900,Map,Map,PJM
57315,Western Sugar Cooperative,57967,Western Sugar Coop - Torrington,Industrial CHP,WY,GEGEN,,2.0,2.0,2.0,Natural Gas Steam Turbine,NG,ST,10,1978,2,2019,Goshen,42.046900,-104.186300,Map,Map,WACM
58105,University of Redlands,58168,Energy Center,Commercial CHP,CA,EC01,,1.5,1.5,1.5,Natural Gas Internal Combustion Engine,NG,IC,2,2007,2,2019,San Bernardino,34.063056,-117.163900,Map,Map,CISO
803,Arizona Public Service Co,116,Ocotillo,Electric Utility,AZ,1,,113.6,110.0,110.0,Natural Gas Steam Turbine,NG,ST,6,1960,1,2019,Maricopa,33.422500,-111.912200,Map,Map,AZPS
803,Arizona Public Service Co,116,Ocotillo,Electric Utility,AZ,2,,113.6,110.0,110.0,Natural Gas Steam Turbine,NG,ST,3,1960,1,2019,Maricopa,33.422500,-111.912200,Map,Map,AZPS
11241,Entergy Louisiana LLC,1404,Sterlington,Electric Utility,LA,7B,PB01,66.0,44.0,55.0,Natural Gas Fired Combined Cycle,NG,CT,4,1973,1,2019,Ouachita,32.704700,-92.079200,Map,Map,MISO
12897,Moose Lake Water & Light Comm,1996,Moose Lake,Electric Utility,MN,4,,2.0,2.0,2.0,Natural Gas Internal Combustion Engine,NG,IC,10,1963,1,2019,Carlton,46.454097,-92.760560,Map,Map,MISO
54888,NRG Texas Power LLC,3468,Sam Bertron,IPP Non-CHP,TX,ST1,,187.8,118.0,118.0,Natural Gas Steam Turbine,NG,ST,3,1958,1,2019,Harris,29.726775,-95.059830,Map,Map,ERCO
54888,NRG Texas Power LLC,3468,Sam Bertron,IPP Non-CHP,TX,ST2,,187.8,174.0,174.0,Natural Gas Steam Turbine,NG,ST,4,1956,1,2019,Harris,29.726775,-95.059830,Map,Map,ERCO
29925,Enterprise Products Optg LP,10261,Enterprise Products Operating,Industrial CHP,TX,GEN1,,2.5,2.3,2.2,Natural Gas Fired Combustion Turbine,NG,GT,9,1984,1,2019,Chambers,29.824700,-94.919700,Map,Map,ERCO
29925,Enterprise Products Optg LP,10261,Enterprise Products Operating,Industrial CHP,TX,GEN2,,2.5,2.3,2.2,Natural Gas Fired Combustion Turbine,NG,GT,9,1984,1,2019,Chambers,29.824700,-94.919700,Map,Map,ERCO
56677,Cyrq Energy Corp,52174,Soda Lake Geothermal No I II,IPP Non-CHP,NV,OE11,,1.2,0.8,0.8,Geothermal,GEO,ST,12,1987,1,2019,Churchill,39.557000,-118.838300,Map,Map,NEVP
56677,Cyrq Energy Corp,52174,Soda Lake Geothermal No I II,IPP Non-CHP,NV,OE12,,1.2,0.9,0.8,Geothermal,GEO,ST,12,1987,1,2019,Churchill,39.557000,-118.838300,Map,Map,NEVP
56677,Cyrq Energy Corp,52174,Soda Lake Geothermal No I II,IPP Non-CHP,NV,OE13,,1.2,0.9,0.9,Geothermal,GEO,ST,12,1987,1,2019,Churchill,39.557000,-118.838300,Map,Map,NEVP
56677,Cyrq Energy Corp,52174,Soda Lake Geothermal No I II,IPP Non-CHP,NV,OE21,,1.5,1.1,1.0,Geothermal,GEO,ST,10,1990,1,2019,Churchill,39.557000,-118.838300,Map,Map,NEVP
2053,Bowater Newport Coosa Pines Op,54216,U S Alliance Coosa Pines,Industrial CHP,AL,AOW6,,12.5,12.5,12.5,Natural Gas Steam Turbine,NG,ST,1,1968,1,2019,Talladega,33.328107,-86.356830,Map,Map,SOCO
20541,Wheelabrator Environmental Systems,54529,Wheelabrator Ridge Energy,IPP Non-CHP,FL,0001,,45.5,47.1,47.1,Wood/Wood Waste Biomass,WDS,ST,3,1994,1,2019,Polk,28.027400,-81.847500,Map,Map,FMPP
29925,Enterprise Products Optg LP,54705,Toca Plant,Industrial Non-CHP,LA,EG-1,,0.8,0.8,0.8,Natural Gas Internal Combustion Engine,NG,IC,6,1958,1,2019,St Bernard,29.866700,-89.826100,Map,Map,MISO
29925,Enterprise Products Optg LP,54705,Toca Plant,Industrial Non-CHP,LA,EG-3,,0.8,0.8,0.8,Natural Gas Internal Combustion Engine,NG,IC,6,1958,1,2019,St Bernard,29.866700,-89.826100,Map,Map,MISO
29925,Enterprise Products Optg LP,54705,Toca Plant,Industrial Non-CHP,LA,EG-4,,0.7,0.7,0.7,Natural Gas Internal Combustion Engine,NG,IC,2,1997,1,2019,St Bernard,29.866700,-89.826100,Map,Map,MISO
29925,Enterprise Products Optg LP,54705,Toca Plant,Industrial Non-CHP,LA,EG2A,,0.5,0.5,0.5,Natural Gas Internal Combustion Engine,NG,IC,8,2001,1,2019,St Bernard,29.866700,-89.826100,Map,Map,MISO
19145,"DTE Tuscola, LLC",55245,Tuscola Station,Industrial CHP,IL,TG1,,6.0,3.8,3.5,Natural Gas Steam Turbine,NG,ST,6,1953,1,2019,Douglas,39.798175,-88.349770,Map,Map,MISO
58566,Abengoa Bioenergy Biomass of Kansas,58613,Synata Hugoton,Industrial CHP,KS,STG,,21.9,6.0,5.0,Natural Gas Steam Turbine,NG,ST,12,2013,1,2019,Stevens,37.180833,-101.386700,Map,Map,SWPP
13960,NRG Cabrillo Power Ops Inc,302,Encina,IPP Non-CHP,CA,2,,110.0,104.0,104.0,Natural Gas Steam Turbine,NG,ST,7,1956,12,2018,San Diego,33.136100,-117.336400,Map,Map,CISO
13960,NRG Cabrillo Power Ops Inc,302,Encina,IPP Non-CHP,CA,3,,110.0,110.0,110.0,Natural Gas Steam Turbine,NG,ST,8,1958,12,2018,San Diego,33.136100,-117.336400,Map,Map,CISO
13960,NRG Cabrillo Power Ops Inc,302,Encina,IPP Non-CHP,CA,4,,306.0,300.0,300.0,Natural Gas Steam Turbine,NG,ST,11,1973,12,2018,San Diego,33.136100,-117.336400,Map,Map,CISO
13960,NRG Cabrillo Power Ops Inc,302,Encina,IPP Non-CHP,CA,5,,345.6,330.0,330.0,Natural Gas Steam Turbine,NG,ST,11,1978,12,2018,San Diego,33.136100,-117.336400,Map,Map,CISO
13960,NRG Cabrillo Power Ops Inc,302,Encina,IPP Non-CHP,CA,GT1,,18.0,14.0,14.0,Natural Gas Fired Combustion Turbine,NG,GT,11,1968,12,2018,San Diego,33.136100,-117.336400,Map,Map,CISO
6452,Florida Power & Light Co,613,Lauderdale,Electric Utility,FL,4GT1,C791,185.0, , ,Natural Gas Fired Combined Cycle,NG,CT,5,1993,12,2018,Broward,26.068600,-80.198400,Map,Map,FPL
6452,Florida Power & Light Co,613,Lauderdale,Electric Utility,FL,4GT2,C791,185.0, , ,Natural Gas Fired Combined Cycle,NG,CT,5,1993,12,2018,Broward,26.068600,-80.198400,Map,Map,FPL
6452,Florida Power & Light Co,613,Lauderdale,Electric Utility,FL,5GT1,C792,185.0, , ,Natural Gas Fired Combined Cycle,NG,CT,6,1993,12,2018,Broward,26.068600,-80.198400,Map,Map,FPL
6452,Florida Power & Light Co,613,Lauderdale,Electric Utility,FL,5GT2,C792,185.0, , ,Natural Gas Fired Combined Cycle,NG,CT,6,1993,12,2018,Broward,26.068600,-80.198400,Map,Map,FPL
6452,Florida Power & Light Co,613,Lauderdale,Electric Utility,FL,ST4,C791,151.2,442.0,485.0,Natural Gas Fired Combined Cycle,NG,CA,10,1957,12,2018,Broward,26.068600,-80.198400,Map,Map,FPL
6452,Florida Power & Light Co,613,Lauderdale,Electric Utility,FL,ST5,C792,151.2,442.0,485.0,Natural Gas Fired Combined Cycle,NG,CA,4,1958,12,2018,Broward,26.068600,-80.198400,Map,Map,FPL
6455,"Duke Energy Florida, LLC",628,Crystal River,Electric Utility,FL,1,,440.5,324.0,332.0,Conventional Steam Coal,BIT,ST,10,1966,12,2018,Citrus,28.965600,-82.697700,Map,Map,FPC
6455,"Duke Energy Florida, LLC",628,Crystal River,Electric Utility,FL,2,,523.8,442.0,448.0,Conventional Steam Coal,BIT,ST,11,1969,12,2018,Citrus,28.965600,-82.697700,Map,Map,FPC
7626,City of Greenfield - (IA),1144,Greenfield,Electric Utility,IA,3,,1.3,1.0,1.0,Petroleum Liquids,DFO,IC,7,1952,12,2018,Adair,41.303889,-94.460560,Map,Map,MISO
7626,City of Greenfield - (IA),1144,Greenfield,Electric Utility,IA,4,,1.8,1.8,1.8,Petroleum Liquids,DFO,IC,8,1961,12,2018,Adair,41.303889,-94.460560,Map,Map,MISO
7626,City of Greenfield - (IA),1144,Greenfield,Electric Utility,IA,5,,3.0,2.7,2.7,Petroleum Liquids,DFO,IC,7,1973,12,2018,Adair,41.303889,-94.460560,Map,Map,MISO
59528,"Kendall Green Energy, LLC",1595,Kendall Square Station,IPP CHP,MA,1,CC1,17.2,14.8,14.8,Natural Gas Fired Combined Cycle,NG,CA,6,1949,12,2018,Middlesex,42.363300,-71.079200,Map,Map,ISNE
59528,"Kendall Green Energy, LLC",1595,Kendall Square Station,IPP CHP,MA,2,CC1,23.0,19.7,19.7,Natural Gas Fired Combined Cycle,NG,CA,1,1951,12,2018,Middlesex,42.363300,-71.079200,Map,Map,ISNE
12647,"ALLETE, Inc.",1893,Clay Boswell,Electric Utility,MN,1,,75.0,67.3,67.3,Conventional Steam Coal,SUB,ST,7,1958,12,2018,Itasca,47.261100,-93.652800,Map,Map,MISO
12647,"ALLETE, Inc.",1893,Clay Boswell,Electric Utility,MN,2,,75.0,67.4,67.4,Conventional Steam Coal,SUB,ST,1,1960,12,2018,Itasca,47.261100,-93.652800,Map,Map,MISO
10000,Evergy Metro,2080,Montrose,Electric Utility,MO,2,,188.0,164.0,164.0,Conventional Steam Coal,SUB,ST,4,1960,12,2018,Henry,38.311400,-93.934800,Map,Map,SWPP
10000,Evergy Metro,2080,Montrose,Electric Utility,MO,3,,188.0,170.0,170.0,Conventional Steam Coal,SUB,ST,5,1964,12,2018,Henry,38.311400,-93.934800,Map,Map,SWPP
56211,Evergy Missouri West,2094,Sibley,Electric Utility,MO,2,,50.0,42.1,42.1,Conventional Steam Coal,SUB,ST,5,1962,12,2018,Jackson,39.178319,-94.184450,Map,Map,SWPP
56211,Evergy Missouri West,2094,Sibley,Electric Utility,MO,3,,419.0,364.1,364.1,Conventional Steam Coal,SUB,ST,6,1969,12,2018,Jackson,39.178319,-94.184450,Map,Map,SWPP
16217,Village of Rockville Centre - (NY),2695,Charles P Keller,Electric Utility,NY,7,,2.0,2.0,2.0,Petroleum Liquids,DFO,IC,1,1942,12,2018,Nassau,40.658333,-73.640560,Map,Map,NYIS
5416,"Duke Energy Carolinas, LLC",3272,99 Islands,Electric Utility,SC,5,,3.0,2.4,2.4,Conventional Hydroelectric,WAT,HY,5,1910,12,2018,Cherokee,35.031400,-81.493600,Map,Map,DUK
5416,"Duke Energy Carolinas, LLC",3272,99 Islands,Electric Utility,SC,6,,3.0,2.4,2.4,Conventional Hydroelectric,WAT,HY,5,1910,12,2018,Cherokee,35.031400,-81.493600,Map,Map,DUK
17698,Southwestern Electric Power Co,3476,Knox Lee,Electric Utility,TX,4,,74.0,73.0,73.0,Natural Gas Steam Turbine,NG,ST,3,1956,12,2018,Gregg,32.376600,-94.641500,Map,Map,SWPP
6452,Florida Power & Light Co,6043,Martin,Electric Utility,FL,1,,934.5,826.0,832.0,Petroleum Liquids,RFO,ST,12,1980,12,2018,Martin,27.053600,-80.562800,Map,Map,FPL
6452,Florida Power & Light Co,6043,Martin,Electric Utility,FL,2,,934.5,826.0,832.0,Petroleum Liquids,RFO,ST,6,1981,12,2018,Martin,27.053600,-80.562800,Map,Map,FPL
1991,Boise White Paper LLC,10486,Boise Cascade International Falls,Industrial CHP,MN,GEN5,,6.2,6.2,6.2,Wood/Wood Waste Biomass,BLQ,ST,1,1957,12,2018,Koochiching,48.606700,-93.406600,Map,Map,MISO
8696,Hoge Lumber Co,10739,Hoge Lumber,Industrial CHP,OH,AC3M,,3.0,1.2,0.8,Wood/Wood Waste Biomass,WDS,ST,12,1985,12,2018,Auglaize,40.488484,-84.318300,Map,Map,PJM
8696,Hoge Lumber Co,10739,Hoge Lumber,Industrial CHP,OH,W750,,0.7,0.3,0.2,Wood/Wood Waste Biomass,WDS,ST,1,1972,12,2018,Auglaize,40.488484,-84.318300,Map,Map,PJM
34691,Ormat Nevada Inc,52138,Steamboat 1A Power Plant,IPP Non-CHP,NV,DE31,,1.2,0.9,1.1,Geothermal,GEO,BT,12,1988,12,2018,Washoe,39.393900,-119.753700,Map,Map,NEVP
34691,Ormat Nevada Inc,52138,Steamboat 1A Power Plant,IPP Non-CHP,NV,DE32,,1.2,0.9,1.1,Geothermal,GEO,BT,12,1988,12,2018,Washoe,39.393900,-119.753700,Map,Map,NEVP
57224,MM West Covina Energy LLC,54015,MM West Covina,IPP Non-CHP,CA,GEN3,,4.9,4.4,4.4,Landfill Gas,LFG,GT,4,1999,12,2018,Los Angeles,34.033206,-117.906100,Map,Map,CISO
58945,EthosEnergy Power Plant Services,54424,Quantum Pasco Power LP,IPP CHP,FL,EDG1,,1.2,1.2,1.2,Petroleum Liquids,DFO,IC,7,1993,12,2018,Pasco,28.374622,-82.188890,Map,Map,TEC
58945,EthosEnergy Power Plant Services,54424,Quantum Pasco Power LP,IPP CHP,FL,EDG2,,1.2,1.2,1.2,Petroleum Liquids,DFO,IC,7,1993,12,2018,Pasco,28.374622,-82.188890,Map,Map,TEC
58945,EthosEnergy Power Plant Services,54424,Quantum Pasco Power LP,IPP CHP,FL,GT1,CC1,57.4,48.5,48.5,Natural Gas Fired Combined Cycle,NG,CT,7,1993,12,2018,Pasco,28.374622,-82.188890,Map,Map,TEC
58945,EthosEnergy Power Plant Services,54424,Quantum Pasco Power LP,IPP CHP,FL,GT2,CC1,57.4,48.5,48.5,Natural Gas Fired Combined Cycle,NG,CT,7,1993,12,2018,Pasco,28.374622,-82.188890,Map,Map,TEC
58945,EthosEnergy Power Plant Services,54424,Quantum Pasco Power LP,IPP CHP,FL,ST1,CC1,26.5,24.0,24.0,Natural Gas Fired Combined Cycle,NG,CA,7,1993,12,2018,Pasco,28.374622,-82.188890,Map,Map,TEC
13582,NRG Astoria Gas Turbine Operations Inc,55243,Astoria Gas Turbines,IPP Non-CHP,NY,12,,23.8,0.0,0.0,Petroleum Liquids,KER,GT,1,1971,12,2018,Queens,40.787000,-73.904800,Map,Map,NYIS
13582,NRG Astoria Gas Turbine Operations Inc,55243,Astoria Gas Turbines,IPP Non-CHP,NY,13,,23.8,0.0,0.0,Petroleum Liquids,KER,GT,1,1971,12,2018,Queens,40.787000,-73.904800,Map,Map,NYIS
13582,NRG Astoria Gas Turbine Operations Inc,55243,Astoria Gas Turbines,IPP Non-CHP,NY,5,,16.3,0.0,0.0,Petroleum Liquids,KER,GT,1,1970,12,2018,Queens,40.787000,-73.904800,Map,Map,NYIS
13582,NRG Astoria Gas Turbine Operations Inc,55243,Astoria Gas Turbines,IPP Non-CHP,NY,7,,16.3,0.0,0.0,Petroleum Liquids,KER,GT,1,1970,12,2018,Queens,40.787000,-73.904800,Map,Map,NYIS
8785,Homestretch Geothermal LLC,55988,Wabuska,IPP Non-CHP,NV,1,,0.6,0.4,0.4,Geothermal,GEO,ST,3,1984,12,2018,Lyon,39.164129,-119.180100,Map,Map,NEVP
8785,Homestretch Geothermal LLC,55988,Wabuska,IPP Non-CHP,NV,2,,0.8,0.4,0.5,Geothermal,GEO,ST,5,1988,12,2018,Lyon,39.164129,-119.180100,Map,Map,NEVP
8785,Homestretch Geothermal LLC,55988,Wabuska,IPP Non-CHP,NV,3,,0.8,0.1,0.6,Geothermal,GEO,ST,7,2002,12,2018,Lyon,39.164129,-119.180100,Map,Map,NEVP
8785,Homestretch Geothermal LLC,55988,Wabuska,IPP Non-CHP,NV,4,,0.8,0.4,0.5,Geothermal,GEO,ST,8,2011,12,2018,Lyon,39.164129,-119.180100,Map,Map,NEVP
8785,Homestretch Geothermal LLC,55988,Wabuska,IPP Non-CHP,NV,5,,0.8,0.4,0.5,Geothermal,GEO,ST,9,2011,12,2018,Lyon,39.164129,-119.180100,Map,Map,NEVP
8785,Homestretch Geothermal LLC,55988,Wabuska,IPP Non-CHP,NV,6,,0.8,0.4,0.5,Geothermal,GEO,ST,8,2011,12,2018,Lyon,39.164129,-119.180100,Map,Map,NEVP
8785,Homestretch Geothermal LLC,55988,Wabuska,IPP Non-CHP,NV,7,,0.8,0.4,0.5,Geothermal,GEO,ST,8,2011,12,2018,Lyon,39.164129,-119.180100,Map,Map,NEVP
57414,Eli Lilly and Company,58043,Lilly Technical Center,Industrial Non-CHP,IN,5,,1.0,1.0,1.0,All Other,PUR,ST,6,1996,12,2018,Marion,39.747500,-86.183060,Map,Map,MISO
58133,Mercy Medical Center,58163,Mercy Medical Center,Commercial Non-CHP,NY,3,,0.4,0.4,0.4,Petroleum Liquids,DFO,IC,1,1963,12,2018,Nassau,40.688333,-73.630830,Map,Map,NYIS
58793,Missouri University of Science and Technology,58923,Missouri S&T - Power Plant,IPP Non-CHP,MO,1000,,1.0,1.0,1.0,Petroleum Liquids,DFO,IC,12,1988,12,2018,Phelps,37.953889,-91.774440,Map,Map,MISO
59173,City of Tulare Water Pollution Control,59395,City of Tulare Water Facility,Commercial Non-CHP,CA,C2550,,0.5,0.4,0.4,Other Waste Biomass,OBG,IC,1,1991,12,2018,Tulare,36.185000,-119.375000,Map,Map,CISO
18445,City of Tallahassee - (FL),688,Arvah B Hopkins,Electric Utility,FL,1,,75.0,76.0,78.0,Natural Gas Steam Turbine,NG,ST,5,1971,11,2018,Leon,30.452200,-84.400000,Map,Map,TAL
6443,"Florida Keys El Coop Assn, Inc",696,Marathon Generating Plant,Electric Utility,FL,3,,3.0,3.0,3.0,Petroleum Liquids,DFO,IC,1,1958,11,2018,Monroe,24.710833,-81.092700,Map,Map,FPL
6443,"Florida Keys El Coop Assn, Inc",696,Marathon Generating Plant,Electric Utility,FL,4,,3.0,3.0,3.0,Petroleum Liquids,DFO,IC,1,1959,11,2018,Monroe,24.710833,-81.092700,Map,Map,FPL
6443,"Florida Keys El Coop Assn, Inc",696,Marathon Generating Plant,Electric Utility,FL,6,,2.5,2.5,2.5,Petroleum Liquids,DFO,IC,5,1973,11,2018,Monroe,24.710833,-81.092700,Map,Map,FPL
6443,"Florida Keys El Coop Assn, Inc",696,Marathon Generating Plant,Electric Utility,FL,7,,2.5,2.5,2.5,Petroleum Liquids,DFO,IC,1,1973,11,2018,Monroe,24.710833,-81.092700,Map,Map,FPL
10005,"Evergy Kansas South, Inc",1242,Murray Gill,Electric Utility,KS,3,,114.0,104.0,104.0,Natural Gas Steam Turbine,NG,ST,6,1956,11,2018,Sedgwick,37.596700,-97.413610,Map,Map,SWPP
10005,"Evergy Kansas South, Inc",1242,Murray Gill,Electric Utility,KS,4,,114.0,86.0,90.0,Natural Gas Steam Turbine,NG,ST,4,1959,11,2018,Sedgwick,37.596700,-97.413610,Map,Map,SWPP
4254,Consumers Energy Co,1706,Gaylord - Consumers,Electric Utility,MI,1,,16.0,12.0,15.0,Natural Gas Fired Combustion Turbine,NG,GT,8,1966,11,2018,Otsego,45.030600,-84.703900,Map,Map,MISO
4254,Consumers Energy Co,1706,Gaylord - Consumers,Electric Utility,MI,2,,16.0,11.0,15.0,Natural Gas Fired Combustion Turbine,NG,GT,8,1966,11,2018,Otsego,45.030600,-84.703900,Map,Map,MISO
4254,Consumers Energy Co,1706,Gaylord - Consumers,Electric Utility,MI,3,,16.0,10.0,14.0,Natural Gas Fired Combustion Turbine,NG,GT,8,1966,11,2018,Otsego,45.030600,-84.703900,Map,Map,MISO
4254,Consumers Energy Co,1710,J H Campbell,Electric Utility,MI,A,,18.6,12.0,17.0,Petroleum Liquids,DFO,GT,12,1968,11,2018,Ottawa,42.910296,-86.200740,Map,Map,MISO
4254,Consumers Energy Co,1718,Straits,Electric Utility,MI,1,,20.0,5.0,10.0,Natural Gas Fired Combustion Turbine,NG,GT,10,1969,11,2018,Emmet,45.766859,-84.756600,Map,Map,MISO
4254,Consumers Energy Co,1719,Thetford,Electric Utility,MI,2,,33.6,29.0,37.0,Natural Gas Fired Combustion Turbine,NG,GT,1,1970,11,2018,Genesee,43.156746,-83.628590,Map,Map,MISO
4254,Consumers Energy Co,1719,Thetford,Electric Utility,MI,3,,33.6,22.0,30.0,Natural Gas Fired Combustion Turbine,NG,GT,6,1970,11,2018,Genesee,43.156746,-83.628590,Map,Map,MISO
4254,Consumers Energy Co,1719,Thetford,Electric Utility,MI,4,,33.6,28.0,37.0,Natural Gas Fired Combustion Turbine,NG,GT,7,1970,11,2018,Genesee,43.156746,-83.628590,Map,Map,MISO
20397,City of West Point - (NE),2313,West Point Municipal,Electric Utility,NE,5,,4.1,4.1,4.1,Natural Gas Internal Combustion Engine,NG,IC,6,1971,11,2018,Cuming,41.844936,-96.713450,Map,Map,SWPP
17568,Cooperative Energy,6061,R D Morrow,Electric Utility,MS,1,,200.0,180.0,200.0,Conventional Steam Coal,BIT,ST,4,1978,11,2018,Lamar,31.218600,-89.394000,Map,Map,MISO
17568,Cooperative Energy,6061,R D Morrow,Electric Utility,MS,2,,200.0,180.0,200.0,Conventional Steam Coal,BIT,ST,12,1978,11,2018,Lamar,31.218600,-89.394000,Map,Map,MISO
11216,Los Angeles County,10478,Pitchess Cogen Station,Commercial CHP,CA,GEN1,CC1,20.9,21.5,20.9,Natural Gas Fired Combined Cycle,NG,CT,9,1988,11,2018,Los Angeles,34.463896,-118.594000,Map,Map,CISO
11216,Los Angeles County,10478,Pitchess Cogen Station,Commercial CHP,CA,GEN2,CC1,7.4,5.7,6.0,Natural Gas Fired Combined Cycle,NG,CA,9,1988,11,2018,Los Angeles,34.463896,-118.594000,Map,Map,CISO
13833,Northeastern Power Co,50039,Kline Township Cogen Facility,IPP CHP,PA,GEN1,,59.0,51.0,51.0,Conventional Steam Coal,WC,ST,7,1989,11,2018,Schuylkill,40.873399,-75.993490,Map,Map,PJM
9303,Bucksport Generation LLC,50243,Bucksport Generation LLC,IPP Non-CHP,ME,GEN3,CC1,72.0,72.0,72.0,Natural Gas Steam Turbine,NG,ST,7,1988,11,2018,Hancock,44.573800,-68.804600,Map,Map,ISNE
9303,Bucksport Generation LLC,50243,Bucksport Generation LLC,IPP Non-CHP,ME,GEN5,CC1,24.0,24.0,24.0,Natural Gas Steam Turbine,NG,ST,11,2012,11,2018,Hancock,44.573800,-68.804600,Map,Map,ISNE
4361,Ingredion Inc - Stockton,52115,Ingredion Stockton,Industrial CHP,CA,GEN1,,2.8,2.8,2.8,Natural Gas Fired Combustion Turbine,NG,GT,3,1984,11,2018,San Joaquin,37.912800,-121.261400,Map,Map,CISO
4361,Ingredion Inc - Stockton,52115,Ingredion Stockton,Industrial CHP,CA,GEN2,,7.2,6.5,6.5,Natural Gas Fired Combustion Turbine,NG,GT,2,2017,11,2018,San Joaquin,37.912800,-121.261400,Map,Map,CISO
6306,"Benson Power, LLC.",55867,Benson Power Biomass Plant,IPP Non-CHP,MN,G1,,62.5,55.0,55.0,Wood/Wood Waste Biomass,WDS,ST,5,2007,11,2018,Swift,45.322401,-95.629510,Map,Map,MISO
58202,Energy Alternatives Wholesale LLC,58229,Lake Marion,IPP Non-CHP,MN,GEN1,,8.8,8.8,8.8,Petroleum Liquids,DFO,IC,6,2000,11,2018,Dakota,44.600278,-93.293890,Map,Map,MISO
58202,Energy Alternatives Wholesale LLC,58230,Hastings,IPP Non-CHP,MN,GEN1,,8.8,8.8,8.8,Petroleum Liquids,DFO,IC,6,2000,11,2018,Dakota,44.700000,-92.893610,Map,Map,MISO
58418,State Fair Community College,58421,Missouri Center for Waste to Energy,IPP Non-CHP,MO,320,,1.0,1.0,1.0,Landfill Gas,LFG,IC,4,2014,11,2018,Pettis,38.724722,-93.278890,Map,Map,SWPP
58418,State Fair Community College,58421,Missouri Center for Waste to Energy,IPP Non-CHP,MO,420,,1.4,1.4,1.4,Landfill Gas,LFG,IC,6,2014,11,2018,Pettis,38.724722,-93.278890,Map,Map,SWPP
61099,First Citizens Bank,61491,First Citizens Bank,Commercial Non-CHP,NC,FCB,,1.5,1.5,1.5,Solar Photovoltaic,SUN,PV,7,2012,11,2018,Wake,35.728517,-78.639210,Map,Map,CPLE
18445,City of Tallahassee - (FL),689,S O Purdom,Electric Utility,FL,GT2,,15.0,10.0,10.0,Natural Gas Fired Combustion Turbine,NG,GT,5,1964,10,2018,Wakulla,30.162304,-84.200670,Map,Map,TAL
10005,"Evergy Kansas South, Inc",1240,Gordon Evans Energy Center,Electric Utility,KS,1,,136.0,154.0,154.0,Natural Gas Steam Turbine,NG,ST,6,1961,10,2018,Sedgwick,37.790300,-97.521670,Map,Map,SWPP
10005,"Evergy Kansas South, Inc",1240,Gordon Evans Energy Center,Electric Utility,KS,2,,390.0,376.0,376.0,Natural Gas Steam Turbine,NG,ST,6,1967,10,2018,Sedgwick,37.790300,-97.521670,Map,Map,SWPP
22500,"Evergy Kansas Central, Inc",1252,Tecumseh Energy Center,Electric Utility,KS,7,,82.0,66.0,66.0,Conventional Steam Coal,SUB,ST,8,1957,10,2018,Shawnee,39.053900,-95.568890,Map,Map,SWPP
11241,Entergy Louisiana LLC,1401,Buras,Electric Utility,LA,8,,20.7,11.0,11.0,Natural Gas Fired Combustion Turbine,NG,GT,2,1971,10,2018,Plaquemines,29.359145,-89.537260,Map,Map,MISO
20860,Wisconsin Public Service Corp,4072,Pulliam,Electric Utility,WI,7,,81.6,76.1,77.8,Conventional Steam Coal,SUB,ST,11,1958,10,2018,Brown,44.540000,-88.008600,Map,Map,MISO
20860,Wisconsin Public Service Corp,4072,Pulliam,Electric Utility,WI,8,,149.6,133.8,136.4,Conventional Steam Coal,SUB,ST,12,1964,10,2018,Brown,44.540000,-88.008600,Map,Map,MISO
20860,Wisconsin Public Service Corp,7366,Lincoln Turbines,Electric Utility,WI,1,,9.2,0.7,2.2,Onshore Wind Turbine,WND,WT,6,1999,10,2018,Kewaunee,44.610800,-87.558600,Map,Map,MISO
11560,City of Manassas - (VA),7438,Church Street Plant,Electric Utility,VA,C1,,1.0,0.8,0.8,Petroleum Liquids,DFO,IC,10,1979,10,2018,Prince William,38.752347,-77.462920,Map,Map,PJM
11560,City of Manassas - (VA),7438,Church Street Plant,Electric Utility,VA,C2,,1.0,0.8,0.8,Petroleum Liquids,DFO,IC,10,1979,10,2018,Prince William,38.752347,-77.462920,Map,Map,PJM
11560,City of Manassas - (VA),7438,Church Street Plant,Electric Utility,VA,C4,,1.0,1.0,1.0,Petroleum Liquids,DFO,IC,10,1979,10,2018,Prince William,38.752347,-77.462920,Map,Map,PJM
745,Applied Energy Inc,10810,NTC/MCRD Energy Facility,IPP CHP,CA,GEN1,CC10,23.0,21.6,22.0,Natural Gas Fired Combined Cycle,NG,CT,5,1989,10,2018,San Diego,32.735300,-117.208300,Map,Map,CISO
745,Applied Energy Inc,10810,NTC/MCRD Energy Facility,IPP CHP,CA,GEN2,CC10,2.6,2.2,2.4,Natural Gas Fired Combined Cycle,NG,CA,5,1989,10,2018,San Diego,32.735300,-117.208300,Map,Map,CISO
745,Applied Energy Inc,10811,Naval Station Energy Facility,IPP CHP,CA,GEN1,CC11,38.4,36.7,37.5,Natural Gas Fired Combined Cycle,NG,CT,7,1989,10,2018,San Diego,32.679269,-117.122400,Map,Map,CISO
745,Applied Energy Inc,10811,Naval Station Energy Facility,IPP CHP,CA,GEN2,CC11,11.6,9.8,10.0,Natural Gas Fired Combined Cycle,NG,CA,7,1989,10,2018,San Diego,32.679269,-117.122400,Map,Map,CISO
745,Applied Energy Inc,10811,Naval Station Energy Facility,IPP CHP,CA,GEN3,CC11,5.2,4.8,4.8,Natural Gas Fired Combined Cycle,NG,CA,7,2005,10,2018,San Diego,32.679269,-117.122400,Map,Map,CISO
745,Applied Energy Inc,10812,North Island Energy Facility,IPP CHP,CA,GEN1,CC12,36.3,38.0,42.0,Natural Gas Fired Combined Cycle,NG,CT,6,1989,10,2018,San Diego,32.705160,-117.189700,Map,Map,CISO
745,Applied Energy Inc,10812,North Island Energy Facility,IPP CHP,CA,GEN2,CC12,4.0,3.5,3.8,Natural Gas Fired Combined Cycle,NG,CA,6,1989,10,2018,San Diego,32.705160,-117.189700,Map,Map,CISO
6675,Fox Metro Water Reclamation,50904,Fox Metro Water Reclamation District,IPP CHP,IL,RU3,,1.1,1.1,1.1,Natural Gas Internal Combustion Engine,NG,IC,12,1988,10,2018,Kendall,41.712800,-88.352200,Map,Map,PJM
6675,Fox Metro Water Reclamation,50904,Fox Metro Water Reclamation District,IPP CHP,IL,RU4,,1.1,1.1,1.1,Natural Gas Internal Combustion Engine,NG,IC,12,1988,10,2018,Kendall,41.712800,-88.352200,Map,Map,PJM
